Country,LOCODE,Name,NameWithoutDiacritics,Subdivision,Function,IATA,Latitude,Longitude
AE,AE AUH,Abu Dhabi,Abu Dhabi,AZ,1-345---,,24.466666666666665,54.36666666666667
AE,AE AMU,Abu Musa,Abu Musa,,1-------,,25.866666666666667,55.016666666666666
AE,AE ABU,Abu al Bukhoosh,Abu al Bukhoosh,,1-------,,25.483333333333334,53.13333333333333
AE,AE ARP,Ahmed Bin Rashid Port,Ahmed Bin Rashid Port,AZ,1-------,,25.533333333333335,55.55
AE,AE AJM,Ajman,Ajman,,1-3-----,QAJ,,
AE,AE FJR,Al Fujayrah,Al Fujayrah,FU,1--4----,,25.116666666666667,56.333333333333336
AE,AE JAZ,Al Jazeera Port,Al Jazeera Port,RK,1-------,,25.716666666666665,55.8
AE,AE AJP,Al Jeer Port,Al Jeer Port,RK,1-3-----,,26.033333333333335,56.05
AE,AE RUW,Ar Ruways,Ar Ruways,,1-------,,24.116666666666667,52.733333333333334
AE,AE DAS,Das Island,Das Island,,1-------,,,
AE,AE DBP,Dibba,Dibba,SH,1-3-----,,25.616666666666667,56.266666666666666
AE,AE DXB,Dubai,Dubai,DU,1-345---,,25.25,55.266666666666666
AE,AE END,Esnnad,Esnnad,AZ,1-------,,24.316666666666666,54.45
AE,AE FAT,Fateh Terminal,Fateh Terminal,,1-------,,,
AE,AE FRP,Free Port,Free Port,DU,1-------,,25.25,55.25
AE,AE HZP,Hamriya Free Zone Port,Hamriya Free Zone Port,DU,1-------,,25.3,55.31666666666667
AE,AE HSN,Hassyan,Hassyan,DU,1-3-----,,24.9,54.9
AE,AE HTL,Hulaylah Terminal,Hulaylah Terminal,,1-------,,25.983333333333334,55.93333333333333
AE,AE JEA,Jebel Ali,Jebel Ali,,1-------,,,
AE,AE QWE,Jebel Ali Free Zone,Jebel Ali Free Zone,DU,1-3-----,,25.0,55.05
AE,AE JED,Jebel Dhanna,Jebel Dhanna,,1-------,,,
AE,AE KLB,Kalba,Kalba,,1-3-----,,25.066666666666666,56.35
AE,AE KLF,Khor al Fakkan,Khor al Fakkan,,1-------,,25.333333333333332,56.35
AE,AE MKH,Mina Khalid,Mina Khalid,SH,1-3-----,,25.35,55.36666666666667
AE,AE KHL,Mina Khalifa/Abu Dhabi,Mina Khalifa/Abu Dhabi,,1-------,,24.833333333333332,54.666666666666664
AE,AE MRP,Mina Rashid Port,Mina Rashid Port,AZ,1-------,,25.266666666666666,55.28333333333333
AE,AE MSA,Mina Saqr,Mina Saqr,RK,1-------,,25.966666666666665,56.06666666666667
AE,AE MZD,Mina Zayed/Abu Dhabi,Mina Zayed/Abu Dhabi,AZ,1-------,,24.516666666666666,54.36666666666667
AE,AE RFA,Mirfa,Mirfa,AZ,1----6--,,25.466666666666665,53.483333333333334
AE,AE MUB,Mubarek Terminal,Mubarek Terminal,,1-------,,,
AE,AE MBS,Mubarras Island,Mubarras Island,,1-------,,24.583333333333332,53.31666666666667
AE,AE AMF,Musaffah,Musaffah,AZ,1-3-----,,24.383333333333333,54.483333333333334
AE,AE PRA,Port Rashid,Port Rashid,,1-------,,,
AE,AE RKP,Rak Khor Port,Rak Khor Port,RK,1-------,,25.816666666666666,55.95
AE,AE RMC,Rak Maritime City,Rak Maritime City,RK,1-------,,25.95,56.05
AE,AE RKT,Ras al Khaimah,Ras al Khaimah,,1--4----,,25.783333333333335,55.95
AE,AE RWP,Ruwais Port,Ruwais Port,AZ,1-------,,24.1,52.71666666666667
AE,AE SID,Sadiyat Island,Sadiyat Island,,1-------,,24.533333333333335,54.4
AE,AE SHJ,Sharjah,Sharjah,SH,1-34----,,25.35,55.38333333333333
AE,AE DUJ,The Palm Jumeirah,The Palm Jumeirah,DU,1-------,,,
AE,AE ULR,Umm Al Nar,Umm Al Nar,,1-------,,24.433333333333334,54.5
AE,AE QIW,Umm al Quwain,Umm al Quwain,,1--4----,,25.583333333333332,55.583333333333336
AE,AE YAS,Yas Island,Yas Island,AZ,1-------,,24.316666666666666,52.6
AE,AE ZUR,Zirku Island,Zirku Island,AZ,1-------,,24.883333333333333,53.06666666666667
AF,AF DHD,Dehdadi,Dehdadi,BAL,1----6--,,36.65,66.98333333333333
AF,AF QLT,Qalat,Qalat,,1-3-----,,32.1,66.88333333333334
AF,AF RKH,Torkham,Torkham,NAN,1-------,,34.88333333333333,71.91666666666667
AG,AG ANU,Antigua,Antigua,,1---5---,,,
AG,AG BBQ,Barbuda,Barbuda,,1-------,,,
AG,AG FAM,Falmouth,Falmouth,,1----6--,,17.016666666666666,-61.78333333333333
AG,AG PHM,Parham,Parham,,1----6--,,17.083333333333332,-61.75
AG,AG SJO,Saint John's,Saint John's,,1-------,,17.116666666666667,-61.85
AI,AI BLP,Blowing Point,Blowing Point,,1-------,,,
AI,AI MBB,Meads Bay Beach,Meads Bay Beach,,1-------,,18.166666666666668,-63.13333333333333
AI,AI SOM,Sombrero,Sombrero,,1-------,,18.6,-63.46666666666667
AI,AI FOR,The Forest,The Forest,,1-------,,,
AI,AI ROA,The Road,The Road,,1-------,,,
AI,AI WLL,Wall Blake,Wall Blake,,1--4----,,,
AL,AL BUT,Butrint,Butrint,SR,1-------,,39.75,20.016666666666666
AL,AL DRZ,Durrës,Durres,,1-------,,,
AL,AL HMR,Himare,Himare,SR,1-------,,40.13333333333333,19.716666666666665
AL,AL ROM,Romano Port,Romano Port,02,1-3-----,,41.36666666666667,19.416666666666668
AL,AL SAR,Sarandë,Sarande,SR,1-------,,39.88333333333333,20.0
AL,AL SHG,Shëngjin,Shengjin,LE,1-------,,41.8,19.566666666666666
AL,AL VOA,Vlorë,Vlore,VL,1-------,,40.46666666666667,19.483333333333334
AM,AM JER,Jermuk,Jermuk,VD,1----6--,,,
AO,AO AZZ,Ambriz,Ambriz,,1--4----,,,
AO,AO BAB,Baba,Baba,,1-------,,-14.833333333333334,12.233333333333333
AO,AO BDD,Barra do Dande,Barra do Dande,,1-------,,,
AO,AO BDT,Baía dos Tigres,Baia dos Tigres,,1-------,,-16.6,11.733333333333333
AO,AO BUG,Benguela,Benguela,,1--4----,,,
AO,AO CAB,Cabinda,Cabinda,,1--4----,,,
AO,AO CPO,Capulo,Capulo,,1-------,,-7.983333333333333,13.166666666666666
AO,AO CUI,Cuio,Cuio,,1-------,,-12.983333333333333,12.983333333333333
AO,AO DAL,Dalia,Dalia,,1-------,,-7.683333333333334,11.783333333333333
AO,AO DGR,Dombe Grande,Dombe Grande,,1-------,,,
AO,AO ETN,Essungo Terminal,Essungo Terminal,,1-------,,-6.333333333333333,12.166666666666666
AO,AO FBY,Farta Bay,Farta Bay,,1-------,,-12.616666666666667,13.2
AO,AO FLT,Futila Terminal,Futila Terminal,,1-------,,-5.45,12.183333333333334
AO,AO GIM,Gimboa,Gimboa,,1-------,,-7.533333333333333,12.166666666666666
AO,AO GIR,Girassol Terminal,Girassol Terminal,,1-------,,-7.633333333333333,11.683333333333334
AO,AO GPO,Greater Plutonio,Greater Plutonio,,1-------,,-7.833333333333333,12.116666666666667
AO,AO KTI,Kiame Terminal,Kiame Terminal,,1-------,,,
AO,AO KOT,Kuito Terminal,Kuito Terminal,,1-------,,-5.433333333333334,11.483333333333333
AO,AO LAA,Landana (Cacongo),Landana (Cacongo),,1-------,,,
AO,AO LIE,Lieura,Lieura,,1-------,,,
AO,AO LOB,Lobito,Lobito,,1---5---,,,
AO,AO LBT,Lombo Terminal,Lombo Terminal,,1-------,,-6.983333333333333,12.35
AO,AO LAD,Luanda,Luanda,,1--45---,,,
AO,AO LUC,Lucira,Lucira,,1-3-----,,,
AO,AO NTO,N'Zeto (Ambrizete),N'Zeto (Ambrizete),,1-------,,-7.266666666666667,12.85
AO,AO MSZ,Namibe,Namibe,,1--4----,,,
AO,AO NQI,Nóqui,Noqui,,123-----,,-5.85,13.433333333333334
AO,AO PAT,Palanca Terminal,Palanca Terminal,,1-------,,,
AO,AO PLE,Porto Alexandre (Tombua),Porto Alexandre (Tombua),,1-3-----,,,
AO,AO PBN,Porto Amboim,Porto Amboim,,1-------,,,
AO,AO PSA,Porto Saco (Portosalazar),Porto Saco (Portosalazar),,1-------,,-15.133333333333333,12.133333333333333
AO,AO RSN,River Sao Nicolau,River Sao Nicolau,,1-------,,-14.25,12.333333333333334
AO,AO STL,Sazaire Terminal,Sazaire Terminal,,1-------,,-6.083333333333333,12.383333333333333
AO,AO SZA,Soyo,Soyo,,1--4----,,,
AO,AO SOQ,Soyo-Quinfuquena Terminal,Soyo-Quinfuquena Terminal,,1-------,,,
AO,AO NDD,Sumbe,Sumbe,,1-34----,,,
AO,AO TAK,Takula Terminal,Takula Terminal,,1-------,,,
AQ,AQ ABA,Aboa,Aboa,,1-------,,-73.05,-13.416666666666666
AQ,AQ ARC,Arctowski,Arctowski,,1-------,,-62.15,-58.46666666666667
AQ,AQ ART,Artigas,Artigas,,1-------,,-62.18333333333333,-58.9
AQ,AQ APT,Arturo Prat,Arturo Prat,,1-------,,-62.5,-59.68333333333333
AQ,AQ BHN,Bellingshausen,Bellingshausen,,1-------,,-62.18333333333333,-58.95
AQ,AQ CAS,Casey Station,Casey Station,,1-------,,-66.28333333333333,110.51666666666667
AQ,AQ CFZ,Comandante Ferraz,Comandante Ferraz,,1-------,,-62.083333333333336,-58.38333333333333
AQ,AQ DAV,Davis Station,Davis Station,,1-------,,-68.56666666666666,77.96666666666667
AQ,AQ DDU,Dumont d'Urville Station,Dumont d'Urville Station,,1-------,,-66.65,140.0
AQ,AQ ESC,Escudero,Escudero,,1-------,,-62.2,-58.95
AQ,AQ ESP,Esperanza,Esperanza,,1-------,,-63.38333333333333,-56.983333333333334
AQ,AQ OHG,General Bernardo O'higgins,General Bernardo O'higgins,,1-------,,-63.31666666666667,-57.9
AQ,AQ GWL,Great Wall,Great Wall,,1-------,,-62.21666666666667,-58.96666666666667
AQ,AQ HLY,Halley,Halley,,1-------,,-75.56666666666666,-26.533333333333335
AQ,AQ JBS,Jang Bogo Station,Jang Bogo Station,,1-------,,-74.6,164.2
AQ,AQ JCP,Juan Carlos Primero,Juan Carlos Primero,,1-------,,-62.65,-60.38333333333333
AQ,AQ JUB,Jubany,Jubany,,1-------,,-62.233333333333334,-58.65
AQ,AQ KSG,King Sejong,King Sejong,,1-------,,-62.21666666666667,-58.78333333333333
AQ,AQ KHN,Kohnen,Kohnen,,1-------,,-75.0,0.06666666666666667
AQ,AQ LAW,Law Base,Law Base,,1-------,,-69.38333333333334,76.38333333333334
AQ,AQ MRB,Marambio,Marambio,,1-------,,-64.23333333333333,-56.65
AQ,AQ MZU,Mario Zucchelli,Mario Zucchelli,,1-------,,-74.68333333333334,164.11666666666667
AQ,AQ MAW,Mawson Station,Mawson Station,,1-------,,-67.6,62.86666666666667
AQ,AQ MCM,McMurdo,McMurdo,,1--4----,,-77.83333333333333,166.66666666666666
AQ,AQ MIR,Mirny,Mirny,,1-------,,-66.55,93.0
AQ,AQ ORC,Orcadas,Orcadas,,1-------,,-60.733333333333334,-44.733333333333334
AQ,AQ PLM,Palmer,Palmer,,1-------,,-64.76666666666667,-64.05
AQ,AQ PFS,Port Foster,Port Foster,,1-------,,-63.0,-60.56666666666667
AQ,AQ PRO,Progress,Progress,,1-------,,-69.4,76.38333333333334
AQ,AQ ROT,Rothera,Rothera,,1-------,,-67.56666666666666,-68.11666666666666
AQ,AQ SMT,San Martín,San Martin,,1-------,,-68.11666666666666,-67.1
AQ,AQ SGN,Signy,Signy,,1-------,,-60.71666666666667,-45.6
AQ,AQ SYW,Syowa,Syowa,,1-------,,-69.0,39.583333333333336
AQ,AQ VKY,Vernadsky,Vernadsky,,1-------,,-65.23333333333333,-64.25
AQ,AQ WSA,Wasa,Wasa,,1-------,,-73.05,-13.416666666666666
AQ,AQ ZGN,Zhongshan,Zhongshan,,1-------,,-69.36666666666666,76.38333333333334
AR,AR GEO,Agrelo,Agrelo,M,1-------,,-33.11666666666667,-68.88333333333334
AR,AR ACF,Arrecifes,Arrecifes,B,123-----,,-34.083333333333336,-60.11666666666667
AR,AR ASO,Arroyo Seco,Arroyo Seco,,1-------,,-33.13333333333333,-60.43333333333333
AR,AR BHI,Bahía Blanca,Bahia Blanca,B,1--4----,,-38.71666666666667,-62.28333333333333
AR,AR BQS,Barranqueras,Barranqueras,H,1-------,,,
AR,AR BVC,Bella Vista,Bella Vista,W,1----6--,,-28.5,-59.05
AR,AR BUE,Buenos Aires,Buenos Aires,C,12345---,,-34.583333333333336,-58.666666666666664
AR,AR CSA,Cabo San Antonio,Cabo San Antonio,,1-------,,-36.03333333333333,-56.56666666666667
AR,AR CLC,Caleta Córdoba,Caleta Cordoba,X,1-------,,-45.733333333333334,-67.06666666666666
AR,AR CVI,Caleta Olivia,Caleta Olivia,Z,1--4----,,,
AR,AR CMP,Campana,Campana,B,1-------,,-34.15,-58.95
AR,AR CDL,Candelaria,Candelaria,N,1-------,,-27.45,-55.75
AR,AR CHO,Chilecito,Chilecito,F,1----6--,,-29.166666666666668,-67.5
AR,AR CBS,Chimbas,Chimbas,J,1----6--,,-31.483333333333334,-68.53333333333333
AR,AR CHL,Choele Choel,Choele Choel,R,1----6--,,,
AR,AR CRY,Colonia Caroya,Colonia Caroya,X,1----6--,,,
AR,AR COL,Colón,Colon,E,1-------,,-32.21666666666667,-58.13333333333333
AR,AR CRD,Comodoro Rivadavia,Comodoro Rivadavia,U,1--4----,,,
AR,AR COU,Concepción del Uruguay,Concepcion del Uruguay,E,1-------,,-32.483333333333334,-58.233333333333334
AR,AR IQO,Coquimbito,Coquimbito,M,1-------,,-32.96666666666667,-68.75
AR,AR CNQ,Corrientes,Corrientes,W,1--4----,,,
AR,AR CUA,Cuatreros/Bahia Blanca,Cuatreros/Bahia Blanca,B,1-------,,,
AR,AR DGU,Del Guazu,Del Guazu,E,1-------,,-33.9,-58.86666666666667
AR,AR DME,Diamante,Diamante,R,1-------,,-32.06666666666667,-60.65
AR,AR DSU,Dock Sur,Dock Sur,B,1-3-----,,-34.65,-58.333333333333336
AR,AR FMA,Formosa,Formosa,P,1--4----,,,
AR,AR OYA,Goya,Goya,W,1--4----,,,
AR,AR GHU,Gualeguaychú,Gualeguaychu,E,1--4----,,-33.016666666666666,-58.516666666666666
AR,AR IBY,Ibicuy,Ibicuy,E,1-------,,-33.733333333333334,-59.166666666666664
AR,AR BUI,Ingeniero Buitrago,Ingeniero Buitrago,B,1-------,,-33.35,-60.13333333333333
AR,AR INW,Ingeniero White/Bahia Blanca,Ingeniero White/Bahia Blanca,B,1-3-----,,-38.78333333333333,-62.266666666666666
AR,AR JLS,Jose Leon Suarez,Jose Leon Suarez,B,1-------,,,
AR,AR LPM,La Paz,La Paz,M,1----6--,,-33.46666666666667,-67.55
AR,AR LPG,La Plata,La Plata,B,1--4----,,-34.85,-57.88333333333333
AR,AR LPS,Las Palmas,Las Palmas,B,123-----,,-34.016666666666666,-59.11666666666667
AR,AR LAV,Lavalle,Lavalle,K,1----6--,,-28.2,-65.13333333333334
AR,AR LCU,Lujan de Cuyo,Lujan de Cuyo,M,1----6--,,-33.05,-68.86666666666666
AR,AR LUJ,Luján,Lujan,B,123-----,,-34.56666666666667,-59.1
AR,AR LZG,Luzuriaga,Luzuriaga,M,1----6--,,-32.95,-68.81666666666666
AR,AR MDQ,Mar del Plata,Mar del Plata,B,1-345---,,-38.05,-57.53333333333333
AR,AR NOS,Molinos,Molinos,,1-------,,-25.416666666666668,-66.31666666666666
AR,AR NEC,Necochea,Necochea,B,1--4----,,,
AR,AR OVI,Olavarría,Olavarria,B,123-----,,-36.88333333333333,-60.333333333333336
AR,AR PP9,Pablo Podestá,Pablo Podesta,B,1-3-----,,-34.6,-58.516666666666666
AR,AR PRA,Paraná,Parana,E,1--4----,,-31.733333333333334,-60.53333333333333
AR,AR PCY,Pilcomayo,Pilcomayo,P,1-------,,,
AR,AR PSS,Posadas,Posadas,N,1--4----,,,
AR,AR PAL,Puerto Alumbrera,Puerto Alumbrera,S,1-------,,-32.65,-60.75
AR,AR PBG,Puerto Belgrano/Bahia Blanca,Puerto Belgrano/Bahia Blanca,B,1-------,,,
AR,AR PUB,Puerto Borghi,Puerto Borghi,,1-------,,,
AR,AR PUD,Puerto Deseado,Puerto Deseado,Z,1--4----,,-47.75,-65.9
AR,AR PEL,Puerto Eldorado,Puerto Eldorado,N,1-------,,-26.35,-54.68333333333333
AR,AR PGV,Puerto Galvan/Bahia Blanca,Puerto Galvan/Bahia Blanca,B,1-------,,,
AR,AR ROC,Puerto Ingeniero M. Rocca,Puerto Ingeniero M. Rocca,B,1-------,,-34.85,-57.93333333333333
AR,AR PLA,Puerto Lavalle,Puerto Lavalle,W,1-------,,-29.016666666666666,-59.18333333333333
AR,AR PMY,Puerto Madryn,Puerto Madryn,U,1--4----,,-42.75,-65.03333333333333
AR,AR PNL,Puerto Nacional/Bahia Blanca,Puerto Nacional/Bahia Blanca,B,1-------,,,
AR,AR PRS,Puerto Rosales/Bahia Blanca,Puerto Rosales/Bahia Blanca,B,1-------,,-38.93333333333333,-62.06666666666667
AR,AR PWA,Puerto Wanda,Puerto Wanda,N,1-------,,-25.966666666666665,-54.6
AR,AR PCO,Punta Colorada,Punta Colorada,R,1-3-----,,-41.7,-65.0
AR,AR PLO,Punta Loyola,Punta Loyola,,1-------,,,
AR,AR PME,Punta Medanos,Punta Medanos,B,1-------,,-36.833333333333336,-56.666666666666664
AR,AR PQU,Punta Quilla,Punta Quilla,,1-------,,,
AR,AR QBR,Quebracho/San Lorenzo,Quebracho/San Lorenzo,S,1-3-----,,-32.65,-60.71666666666667
AR,AR QQN,Quequén,Quequen,B,1-------,,-38.53333333333333,-58.7
AR,AR RAM,Ramallo,Ramallo,B,1-------,,,
AR,AR RWO,Rawson,Rawson,U,123-----,,-43.3,-65.1
AR,AR RSF,Resinfor,Resinfor,S,1-------,,-32.65,-60.733333333333334
AR,AR RIC,Rio Cullen,Rio Cullen,,1-------,,-52.8,-68.18333333333334
AR,AR RIV,Rivadavia,Rivadavia,M,1----6--,,-33.18333333333333,-68.46666666666667
AR,AR ROS,Rosario,Rosario,S,12345---,,-32.95,-60.65
AR,AR RFO,Rosario de la Frontera,Rosario de la Frontera,A,123-----,,-25.8,-64.96666666666667
AR,AR RGL,Río Gallegos,Rio Gallegos,Z,1--4----,,-51.63333333333333,-69.21666666666667
AR,AR RGA,Río Grande,Rio Grande,V,1--4----,,-53.78333333333333,-67.7
AR,AR SAL,Salto,Salto,B,1----6--,,,
AR,AR SAE,San Antonio Este,San Antonio Este,R,1-------,,-40.8,-64.73333333333333
AR,AR SCA,San Carlos,San Carlos,M,1----6--,,-33.766666666666666,-69.03333333333333
AR,AR SFE,San Fernando,San Fernando,B,1-------,,,
AR,AR SIG,San Ignacio,San Ignacio,N,1-------,,-27.266666666666666,-55.56666666666667
AR,AR ULA,San Julian,San Julian,Z,1--4----,,-49.3,-67.71666666666667
AR,AR SLO,San Lorenzo,San Lorenzo,L,1-------,,,
AR,AR SMA,San Martin,San Martin,S,1-------,,-32.71666666666667,-60.733333333333334
AR,AR SMR,San Martin,San Martin,M,1----6--,,-33.06666666666667,-68.46666666666667
AR,AR SNS,San Nicolás de los Arroyos,San Nicolas de los Arroyos,B,1234----,,-33.333333333333336,-60.233333333333334
AR,AR SPD,San Pedro,San Pedro,E,1-3-----,,-33.68333333333333,-59.166666666666664
AR,AR XPD,San Pedro,San Pedro,Y,1--4----,,,
AR,AR SSJ,San Salvador de Jujuy,San Salvador de Jujuy,Y,123-5---,,-24.183333333333334,-65.3
AR,AR SSN,San Sebastián,San Sebastian,V,1-------,,-53.3,-68.46666666666667
AR,AR SAN,Santa Ana,Santa Ana,N,1-------,,-27.333333333333332,-55.583333333333336
AR,AR RZA,Santa Cruz,Santa Cruz,Z,1--4----,,-50.016666666666666,-68.41666666666667
AR,AR SFN,Santa Fe,Santa Fe,S,1234----,,-31.6,-60.68333333333333
AR,AR STA,Santa Rosa,Santa Rosa,M,1----6--,,-33.25,-68.15
AR,AR TIM,Timbúes,Timbues,S,123-----,,-32.63333333333333,-60.78333333333333
AR,AR OYO,Tres Arroyos,Tres Arroyos,B,1-34----,,-38.38333333333333,-60.28333333333333
AR,AR TUC,Tucumán,Tucuman,T,1--4----,,-26.816666666666666,-65.21666666666667
AR,AR TUN,Tunuyan,Tunuyan,M,1----6--,,-33.56666666666667,-69.01666666666667
AR,AR URD,Urdurrain,Urdurrain,,1-3-----,,-32.68333333333333,-58.88333333333333
AR,AR USH,Ushuaia,Ushuaia,V,1--4----,,-54.8,-68.3
AR,AR VLO,Vicente López,Vicente Lopez,B,123-----,,-34.516666666666666,-58.483333333333334
AR,AR VCN,Villa Constitución,Villa Constitucion,S,123-----,,-33.233333333333334,-60.333333333333336
AR,AR VHE,Villa Hernandarias,Villa Hernandarias,E,1-------,,-31.233333333333334,-59.983333333333334
AR,AR VMD,Villa Mercedes,Villa Mercedes,J,1----6--,,,
AR,AR VTT,Villa del Totoral,Villa del Totoral,X,1----6--,,,
AR,AR ZAE,Zárate,Zarate,B,1-------,,-34.1,-59.03333333333333
AS,AS PPG,Pago Pago,Pago Pago,,1--45---,,14.266666666666667,-170.7
AT,AT FG7,Achau,Achau,,1----6--,,48.666666666666664,-162.5
AT,AT AWH,Altenwörth,Altenworth,3,1-3-----,,48.38333333333333,15.85
AT,AT ATN,Asten,Asten,4,123-----,,48.21666666666667,14.4
AT,AT SXA,Bernhardsthal,Bernhardsthal,3,1-3-----,,48.68333333333333,16.866666666666667
AT,AT BFS,Bischofshofen,Bischofshofen,5,123-----,,47.416666666666664,13.216666666666667
AT,AT BRZ,Bregenz,Bregenz,8,123-----,XGZ,47.5,9.766666666666667
AT,AT BOE,Böhlerwenk,Bohlerwenk,3,123-----,,47.983333333333334,14.75
AT,AT DWA,Deutsch Wagram,Deutsch Wagram,,123-----,,48.3,16.566666666666666
AT,AT DKZ,Deutschkreutz,Deutschkreutz,1,1----6--,,47.6,16.633333333333333
AT,AT ERR,Dobermannsdorf,Dobermannsdorf,,1-------,,48.6,16.816666666666666
AT,AT NNN,Donnerskirchen,Donnerskirchen,1,1-------,,47.9,16.633333333333333
AT,AT DRA,Drasenhofen,Drasenhofen,3,1----6--,,48.75,-16.65
AT,AT DRO,Dross,Dross,3,1-3-----,,48.45,15.566666666666666
AT,AT DUE,Dürnstein,Durnstein,,123-----,,48.38333333333333,15.516666666666667
AT,AT EBR,Ebreichsdorf,Ebreichsdorf,3,1-3-----,,47.95,16.4
AT,AT EWD,Eibiswald,Eibiswald,6,1----6--,,46.68333333333333,15.833333333333334
AT,AT BRI,Engabrunn,Engabrunn,,1-------,,48.45,15.75
AT,AT ERO,Engelmannsbrunn,Engelmannsbrunn,3,1-3-----,,48.45,15.883333333333333
AT,AT DFC,Engerwitzdorf,Engerwitzdorf,4,1-3-----,,48.35,14.45
AT,AT ERL,Erl,Erl,,1-3--6--,,47.666666666666664,12.166666666666666
AT,AT EPD,Erpersdorf,Erpersdorf,,1-3-----,,48.333333333333336,15.9
AT,AT FSU,Faistenau,Faistenau,,1-3-----,,47.766666666666666,13.216666666666667
AT,AT LKN,Falkenstein,Falkenstein,3,1-------,,48.71666666666667,13.583333333333334
AT,AT FHR,Fehring,Fehring,,1-3--6--,,46.93333333333333,16.0
AT,AT FNA,Freudenau,Freudenau,9,1-3-----,,48.18333333333333,16.433333333333334
AT,AT FPS,Fulpmes,Fulpmes,,1-3-----,,47.15,11.35
AT,AT RTV,Gallbrunn,Gallbrunn,,1----6--,,,
AT,AT GA6,Gamlitz,Gamlitz,6,1----6--,,46.71666666666667,15.55
AT,AT GDN,Gmunden,Gmunden,,123-----,,47.916666666666664,13.8
AT,AT GFS,Greifenstein,Greifenstein,3,123-----,,48.333333333333336,16.233333333333334
AT,AT GRN,Grein,Grein,,123-----,,48.21666666666667,14.833333333333334
AT,AT SWH,Gross-Schweinbarth,Gross-Schweinbarth,3,1-3-----,,48.4,16.616666666666667
AT,AT GSN,Gutenstein,Gutenstein,,1-3-----,,47.86666666666667,15.883333333333333
AT,AT DOF,Hadersdorf,Hadersdorf,3,1-------,,48.45,15.716666666666667
AT,AT HKM,Hadersdorf-Kammern,Hadersdorf-Kammern,3,1-3-----,,48.45,15.716666666666667
AT,AT LTX,Hainfeld,Hainfeld,3,1-3-----,,48.03333333333333,15.766666666666667
AT,AT GHH,Haugsdorf,Haugsdorf,3,1-------,,48.7,16.066666666666666
AT,AT ITN,Hausleiten,Hausleiten,3,1-------,,48.38333333333333,16.1
AT,AT TEN,Hausmannstatten,Hausmannstatten,6,1-------,,46.983333333333334,15.5
AT,AT BNN,Hobersbrunn,Hobersbrunn,3,1-------,,48.5,16.566666666666666
AT,AT EIN,Hoflein,Hoflein,3,1-------,,48.06666666666667,16.783333333333335
AT,AT ZIN,Inzersdorf an der Traisen,Inzersdorf an der Traisen,3,1-------,,48.31666666666667,15.666666666666666
AT,AT JPS,Japons,Japons,3,1----6--,,48.78333333333333,15.566666666666666
AT,AT ZLF,Jetzelsdorf,Jetzelsdorf,3,1-------,,48.7,16.05
AT,AT JDD,Judendorf,Judendorf,6,1----6--,,47.11666666666667,15.35
AT,AT KAM,Kammern im Liesingtal,Kammern im Liesingtal,8,123-----,,47.4,14.9
AT,AT KTT,Kematen in Tirol,Kematen in Tirol,,123--6--,,47.25,11.266666666666667
AT,AT ZRF,Ketzelsdorf,Ketzelsdorf,3,1-------,,48.65,16.65
AT,AT KFD,Knittelfeld,Knittelfeld,,123-----,,47.2,14.816666666666666
AT,AT KMB,Krummnussbaum,Krummnussbaum,,123--6--,,48.21666666666667,15.166666666666666
AT,AT GHJ,Krustetten,Krustetten,3,1----6--,,48.36666666666667,-154.0
AT,AT LZD,Langenzersdorf,Langenzersdorf,3,123-----,,48.3,16.35
AT,AT LUA,Lembach,Lembach,4,1-3-----,,48.483333333333334,13.883333333333333
AT,AT LTS,Leutschach,Leutschach,6,1----6--,,46.666666666666664,15.466666666666667
AT,AT IEG,Limberg,Limberg,3,1-------,,48.583333333333336,15.866666666666667
AT,AT MAN,Manning,Manning,4,1-3-----,,48.083333333333336,13.666666666666666
AT,AT MAB,Marbach an der Donau,Marbach an der Donau,3,123-----,,48.21666666666667,15.15
AT,AT MKA,Markt Allhau,Markt Allhau,1,1----6--,,47.233333333333334,16.083333333333332
AT,AT MKC,Mitterkirchen,Mitterkirchen,4,1-3-----,,48.18333333333333,14.7
AT,AT MBS,Morbisch am See,Morbisch am See,1,1----6--,,47.75,16.666666666666668
AT,AT NT9,Muthmannsdorf,Muthmannsdorf,3,1-3-----,,47.833333333333336,16.1
AT,AT NGG,Neudegg,Neudegg,3,1----6--,,48.483333333333334,15.883333333333333
AT,AT NFN,Neufelden,Neufelden,,123-----,,48.483333333333334,13.983333333333333
AT,AT NAD,Neuhofen an der Ybbs,Neuhofen an der Ybbs,3,1-3-----,,48.05,14.85
AT,AT ND2,Nickelsdorf,Nickelsdorf,1,1----6--,,47.93333333333333,17.066666666666666
AT,AT NUZ,Nüziders,Nuziders,,123-----,,47.18333333333333,9.8
AT,AT OBU,Oberneukirchen,Oberneukirchen,4,1-------,,,
AT,AT XAE,Oehling,Oehling,3,1-3-----,,48.1,14.8
AT,AT GGU,Oggau,Oggau,1,1-------,,47.833333333333336,16.666666666666668
AT,AT OSH,Ottensheim,Ottensheim,4,123-----,,48.333333333333336,14.183333333333334
AT,AT ATK,Paternion,Paternion,2,1-3-----,,46.7,13.633333333333333
AT,AT PBU,Persenbeug,Persenbeug,3,123-----,,48.18333333333333,15.066666666666666
AT,AT PET,Petzenkirchen,Petzenkirchen,3,1----6--,,48.13333333333333,15.15
AT,AT PAS,Podersdorf am See,Podersdorf am See,1,1-3-----,,47.85,16.833333333333332
AT,AT 7PZ,Prinzersdorf,Prinzersdorf,3,1-3-----,,48.2,15.516666666666667
AT,AT XXX,RIS Inland waterways,RIS Inland waterways,,1-------,,,
AT,AT RAD,Radstadt,Radstadt,,123-----,,47.38333333333333,13.45
AT,AT RHN,Ranshofen,Ranshofen,,1-3-----,,48.233333333333334,13.0
AT,AT REG,Regau,Regau,4,1----6--,,48.083333333333336,14.133333333333333
AT,AT ETZ,Rietz,Rietz,7,1-------,,47.28333333333333,11.05
AT,AT RHR,Rohrau,Rohrau,3,1----6--,,48.06666666666667,16.85
AT,AT RRF,Ruhrsdorf,Ruhrsdorf,3,1-------,,48.4,15.5
AT,AT SAK,Sankt Aegidi,Sankt Aegidi,4,1-3-----,,48.483333333333334,13.75
AT,AT SGS,Sankt Georgen bei Salzburg,Sankt Georgen bei Salzburg,,123-----,,47.983333333333334,12.883333333333333
AT,AT SMR,Sankt Margarethen an der Raab,Sankt Margarethen an der Raab,6,1-3-----,,47.05,15.75
AT,AT SK3,Sankt Margrethen,Sankt Margrethen,2,1----6--,,46.63333333333333,14.383333333333333
AT,AT FBZ,Sankt Stefan ob Stainz,Sankt Stefan ob Stainz,6,1-------,,46.916666666666664,15.25
AT,AT SUH,Sankt Ulrich,Sankt Ulrich,3,1----6--,,48.6,16.766666666666666
AT,AT SVM,Sankt Veit im Mühlkreis,Sankt Veit im Muhlkreis,4,1-3-----,,48.46666666666667,14.15
AT,AT TTL,Schrattenthal,Schrattenthal,3,1-------,,48.7,15.9
AT,AT SAG,Schutzen am Gebirge,Schutzen am Gebirge,1,1----6--,,47.85,16.616666666666667
AT,AT SMK,Schönau im Mühlkreis,Schonau im Muhlkreis,4,1----6--,,48.38333333333333,14.733333333333333
AT,AT SFT,Senftenberg,Senftenberg,3,1----6--,,48.43333333333333,15.55
AT,AT SPG,Spannberg,Spannberg,3,1----6--,,48.45,16.733333333333334
AT,AT SPZ,Spitz,Spitz,,123-----,,48.36666666666667,15.416666666666666
AT,AT STD,Steeg,Steeg,,1-3-----,,47.6,13.633333333333333
AT,AT SSS,Steinberg,Steinberg,1,1----6--,,47.483333333333334,16.483333333333334
AT,AT SUS,Steinhaus,Steinhaus,4,1----6--,,48.11666666666667,14.016666666666667
AT,AT ST6,Straden,Straden,6,1----6--,,46.8,15.866666666666667
AT,AT TAM,Tamsweg,Tamsweg,5,1----6--,,47.13333333333333,13.8
AT,AT TKP,Taufkirchen an der Pram,Taufkirchen an der Pram,,123--6--,,48.416666666666664,13.533333333333333
AT,AT TFS,Terfens,Terfens,7,123-----,,47.31666666666667,11.65
AT,AT THS,Theiss,Theiss,3,1-3-----,,48.38333333333333,15.683333333333334
AT,AT TMR,Traismauer,Traismauer,,123-----,,48.333333333333336,15.733333333333333
AT,AT VEL,Velden,Velden,2,123-----,,46.61666666666667,14.05
AT,AT ERM,Vordernberg,Vordernberg,6,1-3-----,,47.46666666666667,15.0
AT,AT WSE,Wallsee,Wallsee,3,1-3-----,,48.166666666666664,14.716666666666667
AT,AT WEU,Weinburg,Weinburg,3,1-------,,48.1,15.516666666666667
AT,AT WDF,Weitendorf,Weitendorf,6,1-3-----,,46.88333333333333,15.466666666666667
AT,AT WUL,Wulkaprodersdorf,Wulkaprodersdorf,1,1-3-----,,47.8,16.5
AT,AT ZNG,Zobing,Zobing,3,1-------,,48.483333333333334,15.683333333333334
AU,AU ABP,Abbot Point,Abbot Point,QLD,1-------,,-19.9,148.08333333333334
AU,AU ALP,Abell Point,Abell Point,QLD,1-3-----,,-20.266666666666666,148.71666666666667
AU,AU ADL,Adelaide,Adelaide,SA,12345---,,-34.916666666666664,138.58333333333334
AU,AU AIR,Airlie Terminal,Airlie Terminal,WA,1-------,,-21.333333333333332,115.16666666666667
AU,AU ALH,Albany,Albany,WA,1--4----,,,
AU,AU ALD,Aldgate,Aldgate,SA,1----6--,,-35.016666666666666,138.73333333333332
AU,AU AMR,Amrun,Amrun,QLD,1-------,,-12.916666666666666,141.61666666666667
AU,AU ANN,Annandale,Annandale,NSW,1----6--,,-33.88333333333333,151.16666666666666
AU,AU APP,Applecross,Applecross,WA,1----6--,,-32.016666666666666,115.83333333333333
AU,AU ARD,Ardrossan,Ardrossan,SA,1-------,,,
AU,AU AUA,Armadale,Armadale,WA,1-------,,-32.15,116.0
AU,AU DLP,Arndell Park,Arndell Park,NSW,123-----,,-33.78333333333333,150.86666666666667
AU,AU ASB,Ashburton,Ashburton,WA,1-3-----,,-21.683333333333334,115.0
AU,AU ASH,Ashton,Ashton,SA,1----6--,,-34.93333333333333,138.73333333333332
AU,AU P6D,Aspendale,Aspendale,VIC,1-3-----,,-38.03333333333333,145.1
AU,AU ATT,Attadale,Attadale,WA,1----6--,,-32.016666666666666,115.78333333333333
AU,AU AGS,Augusta,Augusta,WA,1-3-----,,-34.31666666666667,115.16666666666667
AU,AU ALI,Australind,Australind,WA,1-3-----,,-33.28333333333333,115.71666666666667
AU,AU BAE,Baerami,Baerami,NSW,1----6--,,-32.4,150.48333333333332
AU,AU BAA,Balhannah,Balhannah,SA,1----6--,,-34.983333333333334,138.83333333333334
AU,AU BAH,Ballast Head,Ballast Head,SA,1-------,,,
AU,AU BNK,Ballina,Ballina,NSW,1--4----,,,
AU,AU BAL,Balnarring,Balnarring,VIC,1----6--,,-38.36666666666667,145.13333333333333
AU,AU LME,Bangholme,Bangholme,VIC,1-------,,,
AU,AU BNN,Bannockburn,Bannockburn,VIC,1----6--,,-38.05,144.16666666666666
AU,AU BWB,Barrow Island,Barrow Island,WA,1--4----,,,
AU,AU BAR,Barry Beach,Barry Beach,VIC,1-3-----,,-38.7,146.38333333333333
AU,AU BRT,Bathurst Island,Bathurst Island,NT,1--4----,,,
AU,AU BCH,Beachport,Beachport,SA,1-------,,,
AU,AU BYP,Beauty Point,Beauty Point,TAS,1-------,,,
AU,AU BBL,Beelbangera,Beelbangera,NSW,1-------,,-34.266666666666666,146.1
AU,AU BEL,Bell Bay,Bell Bay,TAS,123-----,,,
AU,AU BE9,Belrose,Belrose,NSW,1----6--,,-33.733333333333334,151.21666666666667
AU,AU BVD,Belvidere,Belvidere,SA,1----6--,,-35.3,138.93333333333334
AU,AU BFD,Beresfield,Beresfield,NSW,1----6--,,-32.8,151.65
AU,AU BKE,Berkeley Vale,Berkeley Vale,NSW,1----6--,,-33.35,151.43333333333334
AU,AU BRR,Berrys Creek,Berrys Creek,VIC,1----6--,,-38.416666666666664,146.06666666666666
AU,AU BIC,Bicheno,Bicheno,TAS,1----6--,,-41.86666666666667,148.28333333333333
AU,AU BBG,Bing Bong,Bing Bong,NT,1-------,,-15.6,136.35
AU,AU BLP,Black Point,Black Point,NT,1-------,,-11.15,132.15
AU,AU TTS,Blackmans Bay,Blackmans Bay,TAS,1-3-----,,-42.983333333333334,147.31666666666666
AU,AU BOV,Blacktip Terminal,Blacktip Terminal,NT,1-------,,-14.4,129.35
AU,AU BNY,Blayney,Blayney,NSW,123--6--,,-33.53333333333333,149.25
AU,AU BOB,Bobin,Bobin,NSW,1-----7-,,-31.716666666666665,152.28333333333333
AU,AU BDY,Bomaderry,Bomaderry,NSW,1----6--,,-34.85,150.61666666666667
AU,AU BOO,Booby Island,Booby Island,QLD,1-3-----,,-10.6,141.91666666666666
AU,AU BOD,Boondall,Boondall,QLD,1----6--,,-27.333333333333332,153.05
AU,AU BOT,Boort,Boort,VIC,1----6--,,-36.11666666666667,143.71666666666667
AU,AU VIB,Boronia,Boronia,VIC,1-------,,,
AU,AU BTB,Botany Bay,Botany Bay,NSW,1-------,,,
AU,AU BOU,Boundary Bend,Boundary Bend,NSW,1----6--,,-34.7,143.15
AU,AU ZBO,Bowen,Bowen,QLD,1--4----,,,
AU,AU BOY,Boyer,Boyer,TAS,1----6--,,-42.833333333333336,147.3
AU,AU BBY,Bremer Bay,Bremer Bay,WA,1-3-----,,-34.38333333333333,119.36666666666666
AU,AU BOL,Bridgewater-on-Loddon,Bridgewater-on-Loddon,VIC,1----6--,,-36.6,143.95
AU,AU BPO,Bridport,Bridport,TAS,1-3-----,,-41.0,147.4
AU,AU BSA,Brighton-Le-Sands,Brighton-Le-Sands,NSW,1----6--,,-33.95,151.15
AU,AU BNE,Brisbane,Brisbane,QLD,12345---,,-27.466666666666665,153.01666666666668
AU,AU BMW,Broadmeadows,Broadmeadows,VIC,1-------,,,
AU,AU NSB,Broke,Broke,NSW,1----6--,,-32.75,151.1
AU,AU BME,Broome,Broome,WA,1--4----,,,
AU,AU BUV,Buffalo Venture,Buffalo Venture,NT,1-------,,,
AU,AU BUL,Bulli,Bulli,NSW,1-3-----,,-34.3,150.91666666666666
AU,AU BLL,Bullsbrook,Bullsbrook,WA,1----6--,,-31.666666666666668,116.0
AU,AU BWI,Bulwer,Bulwer,QLD,1-------,,-27.066666666666666,153.36666666666667
AU,AU BUY,Bunbury,Bunbury,WA,1--4----,,,
AU,AU BDB,Bundaberg,Bundaberg,QLD,1--4----,,,
AU,AU BUC,Burketown,Burketown,QLD,1-34----,,-17.733333333333334,139.53333333333333
AU,AU BWT,Burnie,Burnie,TAS,1--4----,,,
AU,AU BYY,Bushy Park,Bushy Park,VIC,1----6--,,-37.86666666666667,147.03333333333333
AU,AU BUS,Busselton,Busselton,WA,1-------,,,
AU,AU CNS,Cairns,Cairns,QLD,1--4----,,,
AU,AU CAL,Caloundra Head,Caloundra Head,QLD,1-------,,,
AU,AU CMB,Cambridge,Cambridge,TAS,1----6--,,-42.833333333333336,147.45
AU,AU CMP,Camperdown,Camperdown,NSW,1-------,,-33.88333333333333,151.16666666666666
AU,AU CBR,Canberra,Canberra,ACT,12345---,,,
AU,AU CAP,Capalaba,Capalaba,QLD,1-3-----,,-27.516666666666666,153.18333333333334
AU,AU CCU,Cape Cuvier,Cape Cuvier,WA,1-------,,,
AU,AU DON,Cape Don,Cape Don,NT,1-------,,-11.316666666666666,131.75
AU,AU CQP,Cape Flattery,Cape Flattery,QLD,1-------,,,
AU,AU CLT,Cape Lambert,Cape Lambert,WA,1-------,,,
AU,AU CLN,Cape Leeuwin,Cape Leeuwin,WA,1-------,,,
AU,AU CPN,Cape Preston,Cape Preston,WA,1-------,,,
AU,AU CBO,Carboor,Carboor,VIC,1----6--,,-36.63333333333333,146.55
AU,AU CAR,Carina Heights,Carina Heights,QLD,1-------,,-27.5,153.08333333333334
AU,AU CLF,Carlingford,Carlingford,NSW,1-------,,-33.78333333333333,151.05
AU,AU CVQ,Carnarvon,Carnarvon,WA,1--4----,,,
AU,AU CHB,Catherine Hill Bay,Catherine Hill Bay,NSW,1-------,,,
AU,AU CUN,Caufield North,Caufield North,VIC,1-------,,-37.86666666666667,14.85
AU,AU CVS,Caversham,Caversham,WA,1----6--,,-31.883333333333333,115.96666666666667
AU,AU CHV,Challis Venture (oil Terminal),Challis Venture (oil Terminal),NT,1-------,,-12.116666666666667,125.01666666666667
AU,AU CHA,Chatswood,Chatswood,NSW,1-3-----,,,
AU,AU CHE,Chermside,Chermside,QLD,1-------,,-27.383333333333333,153.16666666666666
AU,AU CN6,Chinderah,Chinderah,NSW,1-3-----,,-28.233333333333334,153.55
AU,AU CHT,Chittering,Chittering,WA,1----6--,,-31.483333333333334,116.1
AU,AU SCL,Clare,Clare,SA,1----6--,,-33.833333333333336,138.6
AU,AU CLM,Claremont,Claremont,WA,123-5---,,-31.983333333333334,115.78333333333333
AU,AU CLR,Clarence River,Clarence River,NSW,1-------,,,
AU,AU CDN,Clarendon,Clarendon,SA,1-------,,-35.11666666666667,138.63333333333333
AU,AU CVN,Cleveland,Cleveland,QLD,1-3--6--,,-27.533333333333335,153.26666666666668
AU,AU CVL,Clovelly,Clovelly,NSW,1-------,,-33.9,151.25
AU,AU CTI,Cockatoo Island,Cockatoo Island,WA,1-------,,-16.1,123.61666666666666
AU,AU CFS,Coffs Harbour,Coffs Harbour,NSW,1--4----,,,
AU,AU CST,Coldstream,Coldstream,VIC,1----6--,,-37.71666666666667,145.36666666666667
AU,AU CLL,Collan Islands,Collan Islands,WA,1-------,,,
AU,AU CMO,Como,Como,NSW,1----6--,,-34.0,151.06666666666666
AU,AU CDE,Condamine,Condamine,QLD,1-3-----,,-26.933333333333334,150.13333333333333
AU,AU CTN,Cooktown,Cooktown,QLD,1--4----,,,
AU,AU COU,Coolum,Coolum,QLD,1----6--,,-26.55,153.08333333333334
AU,AU COO,Coomera,Coomera,QLD,123-----,,-27.883333333333333,153.3
AU,AU CNW,Coonawarra,Coonawarra,SA,1----6--,,-37.3,140.81666666666666
AU,AU CPR,Coorparoo,Coorparoo,QLD,1----6--,,-27.5,153.05
AU,AU CRL,Coral Bay,Coral Bay,WA,1-------,,-23.133333333333333,113.76666666666667
AU,AU CRS,Coral Sea,Coral Sea,,1--4----,,-19.083333333333332,150.9
AU,AU CBA,Corio Bay,Corio Bay,VIC,1-------,,-38.11666666666667,144.43333333333334
AU,AU CRV,Coromandel Valley,Coromandel Valley,SA,1----6--,,-35.05,138.61666666666667
AU,AU COP,Cossack Pioneer (oil Terminal),Cossack Pioneer (oil Terminal),WA,1-------,,-19.583333333333332,116.45
AU,AU CTE,Cottesloe,Cottesloe,WA,1----6--,,-32.0,115.76666666666667
AU,AU CTT,Cottles Bridge,Cottles Bridge,VIC,1----6--,,-37.63333333333333,145.21666666666667
AU,AU DIL,Cowandilla,Cowandilla,SA,1----6--,,-34.916666666666664,138.55
AU,AU COW,Cowaramup,Cowaramup,,1----6--,,-33.86666666666667,115.08333333333333
AU,AU CRF,Crafers,Crafers,SA,1----6--,,-35.0,138.7
AU,AU CRE,Crestmead,Crestmead,QLD,1----6--,,-27.683333333333334,153.08333333333334
AU,AU C8R,Cromer,Cromer,SA,1-------,,-34.766666666666666,139.0
AU,AU CRU,Cronulla,Cronulla,NSW,1----6--,,-34.05,151.15
AU,AU DIT,Dalrymple Islet,Dalrymple Islet,,1-------,,-9.6,143.3
AU,AU DAL,Dalton,Dalton,NSW,1-----7-,,-34.71666666666667,149.18333333333334
AU,AU DAM,Dampier,Dampier,WA,1-------,,,
AU,AU DAR,Dardanup,Dardanup,WA,1----6--,,-33.4,115.75
AU,AU DAA,Darra,Darra,QLD,1-------,,,
AU,AU DRW,Darwin,Darwin,NT,12345---,,-12.45,130.83333333333334
AU,AU DRB,Derby,Derby,WA,1--4----,,,
AU,AU DPO,Devonport,Devonport,TAS,1--4----,,,
AU,AU DHI,Dhipirrinjura,Dhipirrinjura,NT,1-------,,-12.25,135.08333333333334
AU,AU DIA,Diamond Creek,Diamond Creek,VIC,1----6--,,-37.666666666666664,145.15
AU,AU DRY,Drysdale,Drysdale,VIC,1----6--,,-38.166666666666664,144.56666666666666
AU,AU QDN,Eden,Eden,NSW,1--4----,,,
AU,AU EDE,Eden Valley,Eden Valley,SA,1----6--,,-34.65,139.1
AU,AU EDB,Edithburgh,Edithburgh,SA,1-------,,,
AU,AU ELE,Electrona,Electrona,TAS,1-------,,,
AU,AU ELB,Elizabeth Bay,Elizabeth Bay,NT,1-------,,-11.9,136.55
AU,AU ELT,Eltham,Eltham,VIC,1----6--,,-37.733333333333334,145.15
AU,AU EPR,Esperance,Esperance,WA,1--4----,,,
AU,AU EVL,Evans Landing,Evans Landing,QLD,1-3-----,,-12.666666666666666,141.85
AU,AU PEX,Exmouth,Exmouth,WA,1-------,,,
AU,AU EXM,Exmouth Gulf,Exmouth Gulf,WA,1--4----,,,
AU,AU FIN,Findon,Findon,SA,1----6--,,-34.9,138.53333333333333
AU,AU FIS,Fisherman Islands,Fisherman Islands,QLD,123-----,,,
AU,AU FLN,Flynn,Flynn,VIC,1----6--,,-38.166666666666664,146.68333333333334
AU,AU FLD,Frankland,Frankland,WA,1----6--,,-34.36666666666667,114.06666666666666
AU,AU FRE,Fremantle,Fremantle,WA,1--4----,JFM,,
AU,AU FWT,Freshwater,Freshwater,NSW,1----6--,,-33.766666666666666,151.28333333333333
AU,AU GBT,Garbutt,Garbutt,QLD,1-3-----,,-19.266666666666666,146.76666666666668
AU,AU GEX,Geelong,Geelong,VIC,1--4----,,,
AU,AU GEM,Gembrook,Gembrook,VIC,1----6--,,-37.95,145.55
AU,AU GEE,George Town,George Town,TAS,1--4----,,,
AU,AU GET,Geraldton,Geraldton,WA,1--4----,,,
AU,AU GLT,Gladstone,Gladstone,QLD,1--4----,,,
AU,AU GLL,Glebe Island,Glebe Island,NSW,123-----,,,
AU,AU GOI,Goods Is,Goods Is,QLD,1-------,,,
AU,AU GOA,Goolwa,Goolwa,SA,1-34----,,-35.5,138.78333333333333
AU,AU GOR,Gordon,Gordon,VIC,1----6--,,-37.583333333333336,144.1
AU,AU GOV,Gove,Gove,NT,1--4----,,,
AU,AU GOH,Gove Harbour,Gove Harbour,NT,1-------,,-12.216666666666667,136.66666666666666
AU,AU GTH,Grantham,Grantham,QLD,1-3-----,,-27.583333333333332,152.2
AU,AU GRB,Gravelly Beach,Gravelly Beach,TAS,1----6--,,-41.3,146.96666666666667
AU,AU GTW,Great Western,Great Western,VIC,1----6--,,-37.15,142.85
AU,AU GRH,Greenhead,Greenhead,WA,1-------,,,
AU,AU GRK,Greenock,Greenock,SA,1----6--,,-34.46666666666667,138.91666666666666
AU,AU GRV,Griffin Venture (oil Terminal),Griffin Venture (oil Terminal),WA,1-------,,-21.216666666666665,114.63333333333334
AU,AU GTE,Groote Eylandt,Groote Eylandt,NT,1--4----,,,
AU,AU GRU,Gruyere,Gruyere,VIC,1----6--,,-37.733333333333334,145.45
AU,AU GUM,Gumeracha,Gumeracha,SA,1----6--,,-34.833333333333336,138.88333333333333
AU,AU HAH,Hahndorf,Hahndorf,SA,1----6--,,-35.03333333333333,138.8
AU,AU HTT,Halletts Cove,Halletts Cove,SA,1----6--,,-35.06666666666667,138.5
AU,AU HAM,Hampton,Hampton,VIC,1-------,,-38.333333333333336,145.25
AU,AU HWD,Hanwood,Hanwood,NSW,1----6--,,-34.333333333333336,146.03333333333333
AU,AU HPP,Happy Valley,Happy Valley,SA,1----6--,,-35.083333333333336,138.53333333333333
AU,AU HYI,Hardy Island,Hardy Island,NT,1-------,,,
AU,AU HAS,Hastings,Hastings,VIC,1-------,,-38.3,145.25
AU,AU HPT,Hay Point,Hay Point,QLD,1-------,,,
AU,AU HTH,Heathcote,Heathcote,VIC,1----6--,,-36.916666666666664,144.71666666666667
AU,AU HBE,Heatherbrae,Heatherbrae,NSW,1----6--,,-32.78333333333333,151.73333333333332
AU,AU HFR,Henderson,Henderson,WA,1---5---,,-32.166666666666664,115.76666666666667
AU,AU HNK,Hinchinbrook Island,Hinchinbrook Island,QLD,1--4----,,-18.383333333333333,146.28333333333333
AU,AU HBA,Hobart,Hobart,TAS,1-345---,,-42.86666666666667,147.3
AU,AU HDD,Hoddles Creek,Hoddles Creek,VIC,1----6--,,-37.833333333333336,145.58333333333334
AU,AU HOT,Hope Tun,Hope Tun,WA,1-------,,,
AU,AU IGF,Ingle Farm,Ingle Farm,SA,1----6--,,-34.833333333333336,138.63333333333333
AU,AU IPS,Ipswich,Ipswich,QLD,1-------,,,
AU,AU IRY,Irymple,Irymple,VIC,1----6--,,-34.25,142.16666666666666
AU,AU JOV,Jabiru Venture (oil terminal),Jabiru Venture (oil terminal),NT,1-------,,,
AU,AU JAR,Jarrahdale,Jarrahdale,WA,1----6--,,-32.35,116.06666666666666
AU,AU KAN,Kangarilla,Kangarilla,SA,1----6--,,-35.15,138.65
AU,AU KRB,Karumba,Karumba,QLD,1-34----,,-17.483333333333334,140.83333333333334
AU,AU KTR,Katherine,Katherine,NT,1--4----,,,
AU,AU KAY,Kayena,Kayena,TAS,1----6--,,-41.18333333333333,146.88333333333333
AU,AU KEI,Keith,Keith,SA,1----6--,,-36.1,140.35
AU,AU KNG,Kensington Gardens,Kensington Gardens,,1----6--,,-35.53333333333333,139.1
AU,AU KEY,Keyneton,Keyneton,,1----6--,,-34.56666666666667,139.13333333333333
AU,AU KIB,King Bay,King Bay,WA,1-------,,,
AU,AU KGC,Kingscote,Kingscote,SA,1--4----,,,
AU,AU GTY,Kingsford,Kingsford,NSW,1----6--,,,
AU,AU KIT,Kingston,Kingston,SA,1-------,,,
AU,AU KLP,Klein Point,Klein Point,SA,1-------,,,
AU,AU KOI,Koolan Island,Koolan Island,WA,1-------,,,
AU,AU KUR,Kurnell,Kurnell,NSW,1-------,,,
AU,AU KWI,Kwinana,Kwinana,WA,1-------,,,
AU,AU LAB,Lady Barron,Lady Barron,TAS,1-------,,,
AU,AU LMQ,Lake Macquarie,Lake Macquarie,NSW,1-3-----,,-33.06666666666667,151.6
AU,AU LEN,Lakes Entrance,Lakes Entrance,VIC,1-3-----,,-37.88333333333333,147.98333333333332
AU,AU LAN,Langarra,Langarra,NT,1-------,,-12.083333333333334,135.35
AU,AU LST,Launceston,Launceston,TAS,1--4----,,,
AU,AU JML,Laurieton,Laurieton,NSW,1----6--,,-31.65,152.8
AU,AU LGT,Legendre Terminal,Legendre Terminal,WA,1-------,,,
AU,AU LYD,Lilydale,Lilydale,VIC,123--6--,,-37.75,145.36666666666667
AU,AU LOW,Lisarow,Lisarow,NSW,123-----,,-33.38333333333333,151.36666666666667
AU,AU DFE,Longwood,Longwood,SA,1-------,,,
AU,AU LDH,Lord Howe Is,Lord Howe Is,NSW,1--4----,,,
AU,AU LUC,Lucinda,Lucinda,QLD,1-------,,,
AU,AU LUB,Lucky Bay,Lucky Bay,SA,1-------,,-33.68333333333333,136.91666666666666
AU,AU MKY,Mackay,Mackay,QLD,1-34----,,-21.15,149.2
AU,AU MQI,Macquarie Island,Macquarie Island,TAS,1-------,,-54.483333333333334,158.93333333333334
AU,AU MRK,Macquarie Park,Macquarie Park,NSW,1----6--,,-33.766666666666666,151.11666666666667
AU,AU MBY,Maribyrnong,Maribyrnong,VIC,1----6--,,-37.78333333333333,144.88333333333333
AU,AU MAR,Marrickville,Marrickville,NSW,123--6--,,-33.916666666666664,151.16666666666666
AU,AU MBH,Maryborough,Maryborough,QLD,1--4----,,,
AU,AU SAD,Maryborough,Maryborough,VIC,1-------,,-37.5,143.75
AU,AU KLL,Maryknoll,Maryknoll,VIC,1-------,,-38.916666666666664,145.6
AU,AU MEL,Melbourne,Melbourne,VIC,12345---,,-37.81666666666667,144.96666666666667
AU,AU MRS,Melrose,Melrose,SA,1-------,,,
AU,AU MLI,Melville Island,Melville Island,NT,1-------,,-11.55,130.93333333333334
AU,AU MID,Midland,Midland,WA,1-3-----,,31.883333333333333,-115.98333333333333
AU,AU MIB,Milner Bay,Milner Bay,NT,1-------,,,
AU,AU MIL,Milperra,Milperra,NSW,1-3-----,,,
AU,AU MON,Montara Field,Montara Field,NT,1-------,,-13.083333333333334,124.08333333333333
AU,AU MLL,Mooloolaba,Mooloolaba,QLD,1-3-5---,,-26.683333333333334,153.13333333333333
AU,AU MOK,Moorook,Moorook,SA,1-3-----,,-34.28333333333333,140.35
AU,AU MDC,Mordialloc,Mordialloc,VIC,123-----,,-38.016666666666666,145.08333333333334
AU,AU MGE,Mount Gravatt,Mount Gravatt,QLD,1-------,,-27.533333333333335,153.08333333333334
AU,AU MHW,Mount Hawthorn,Mount Hawthorn,WA,1----6--,,-31.916666666666668,115.83333333333333
AU,AU MOU,Mourilyan,Mourilyan,QLD,1-------,,,
AU,AU MOW,Mowbray Heights,Mowbray Heights,TAS,123-----,,-41.38333333333333,147.13333333333333
AU,AU MWA,Mulwala,Mulwala,NSW,123-----,,-36.0,146.0
AU,AU NEQ,Nericon,Nericon,NSW,1-3-----,,-34.2,146.03333333333333
AU,AU NLK,New Norfolk,New Norfolk,TAS,1-3-----,,-42.78333333333333,147.06666666666666
AU,AU NTL,Newcastle,Newcastle,NSW,1--4----,,,
AU,AU VIC,Newtown,Newtown,VIC,1-3-----,,-37.7,143.65
AU,AU NGH,Nganhurra,Nganhurra,WA,1-----7-,,-21.483333333333334,114.0
AU,AU NHU,Nhulunbuy,Nhulunbuy,NT,1-------,,-12.183333333333334,136.78333333333333
AU,AU NIV,Ningaloo Vision,Ningaloo Vision,,1-------,,-21.4,114.08333333333333
AU,AU NB2,North Bridge,North Bridge,NSW,1----6--,,-33.8,151.21666666666667
AU,AU NTE,Northern Endeavour,Northern Endeavour,NT,1-------,,,
AU,AU OKF,Oak Flats,Oak Flats,NSW,1----6--,,-34.55,150.81666666666666
AU,AU ONS,Onslow,Onslow,WA,1-34----,,-21.65,115.1
AU,AU OSB,Osborne Island,Osborne Island,WA,1-------,,,
AU,AU PAG,Paddington,Paddington,NSW,1----6--,,-33.88333333333333,151.21666666666667
AU,AU DSW,Padstow,Padstow,NSW,123-----,,-33.95,151.03333333333333
AU,AU PMK,Palm Island,Palm Island,QLD,1--4----,,,
AU,AU PAL,Palmerston,Palmerston,NT,1-------,,-12.466666666666667,130.83333333333334
AU,AU PEL,Pelican Point,Pelican Point,SA,123-----,,,
AU,AU PEN,Pendle Hills,Pendle Hills,NSW,1----6--,,-33.8,150.95
AU,AU PER,Perth,Perth,WA,12345---,,-31.95,115.85
AU,AU PIS,Phillip Island,Phillip Island,VIC,1-34----,,-38.483333333333334,145.23333333333332
AU,AU PIC,Picton,Picton,NSW,1----6--,,-34.18333333333333,150.6
AU,AU PYT,Pleystowe,Pleystowe,QLD,1-------,,-21.15,149.01666666666668
AU,AU PHP,Point Henry Pier/Melbourne,Point Henry Pier/Melbourne,VIC,12------,,-38.11666666666667,144.43333333333334
AU,AU PSM,Point Samson,Point Samson,WA,1-------,,,
AU,AU PWI,Point Wilson,Point Wilson,VIC,1-------,,,
AU,AU PAE,Port Adelaide,Port Adelaide,SA,1-------,,,
AU,AU PTL,Port Alma,Port Alma,QLD,1-------,,,
AU,AU PAU,Port Arthur,Port Arthur,TAS,1-------,,,
AU,AU PUG,Port Augusta,Port Augusta,SA,1--4----,,,
AU,AU PBY,Port Bonython,Port Bonython,SA,1-------,,,
AU,AU PBT,Port Botany,Port Botany,NSW,123-----,,,
AU,AU PCT,Port Curtis,Port Curtis,QLD,1-------,,,
AU,AU PTD,Port Dalrymple,Port Dalrymple,QLD,1-------,,,
AU,AU PDI,Port Denison,Port Denison,WA,1-3-----,,-29.266666666666666,114.93333333333334
AU,AU PTI,Port Douglas,Port Douglas,QLD,1--4----,,,
AU,AU FRY,Port Fairy,Port Fairy,VIC,1-------,,-38.36666666666667,142.23333333333332
AU,AU PGI,Port Giles,Port Giles,SA,1-------,,,
AU,AU T3P,Port Hacking,Port Hacking,NSW,1-3-----,,-34.06666666666667,151.13333333333333
AU,AU PHE,Port Hedland,Port Hedland,WA,1--4----,,,
AU,AU PHU,Port Huon,Port Huon,TAS,1-------,,,
AU,AU PJK,Port Jackson,Port Jackson,NSW,1-3-----,,,
AU,AU PKL,Port Kembla,Port Kembla,NSW,1--4----,,,
AU,AU PKY,Port Kenny,Port Kenny,SA,1-------,,-33.166666666666664,134.68333333333334
AU,AU PLA,Port Latta,Port Latta,TAS,1-------,,,
AU,AU PLO,Port Lincoln,Port Lincoln,SA,1--4----,,,
AU,AU PQQ,Port Macquarie,Port Macquarie,NSW,1--4----,,,
AU,AU POR,Port Melbourne,Port Melbourne,VIC,1-------,,-37.833333333333336,144.93333333333334
AU,AU PPI,Port Pirie,Port Pirie,SA,1--4----,,,
AU,AU PSY,Port Stanley,Port Stanley,TAS,1-------,,,
AU,AU PST,Port Stanvac,Port Stanvac,SA,1-------,,,
AU,AU PWL,Port Walcott,Port Walcott,WA,1-------,,,
AU,AU PWR,Port Warrender,Port Warrender,WA,1-------,,,
AU,AU PTW,Port Willunga,Port Willunga,SA,1----6--,,-35.266666666666666,138.45
AU,AU PBN,Port of Brisbane,Port of Brisbane,QLD,123--6--,,-27.383333333333333,153.16666666666666
AU,AU PTJ,Portland,Portland,VIC,1--4----,,,
AU,AU PHR,Prahran,Prahran,VIC,1-3-----,,-37.85,145.0
AU,AU PRC,Price,Price,SA,1-------,,,
AU,AU PRB,Proper Bay,Proper Bay,SA,1-------,,,
AU,AU PYE,Pyrenees,Pyrenees,VIC,1----6--,,-37.083333333333336,143.48333333333332
AU,AU PYR,Pyrmont,Pyrmont,NSW,1-3-----,,-33.86666666666667,151.18333333333334
AU,AU RAF,Raffles Bay,Raffles Bay,NT,1-------,,-11.266666666666667,132.38333333333333
AU,AU RAB,Rapid Bay,Rapid Bay,SA,1-------,,,
AU,AU REV,Revesby,Revesby,NSW,123-----,,-33.95,151.0
AU,AU RLL,Reynella,Reynella,SA,1----6--,,-36.1,138.53333333333333
AU,AU RDS,Rhodes,Rhodes,NSW,123-----,,-33.833333333333336,151.08333333333334
AU,AU RCM,Richmond,Richmond,QLD,1--4----,,,
AU,AU RDN,Risdon,Risdon,TAS,1-3-----,,,
AU,AU ROB,Robe,Robe,SA,1-------,,-37.18333333333333,139.75
AU,AU ROK,Rockhampton,Rockhampton,QLD,1--4----,,,
AU,AU RYP,Rocky Point,Rocky Point,WA,1-------,,-33.5,123.98333333333333
AU,AU RBU,Roebourne,Roebourne,WA,1--4----,,,
AU,AU RNB,Rosslyn Bay,Rosslyn Bay,QLD,1-3-----,,-23.166666666666668,150.78333333333333
AU,AU RTS,Rottnest Island,Rottnest Island,WA,1--4----,,,
AU,AU ROZ,Rozelle,Rozelle,NSW,1-3--6--,,-33.85,151.16666666666666
AU,AU SMT,Saladin Marine Terminal,Saladin Marine Terminal,WA,1-------,,,
AU,AU SGT,Sandgate,Sandgate,NSW,1----6--,,-32.86666666666667,151.7
AU,AU SCY,Scoresby,Scoresby,VIC,1-3-----,,-37.9,145.21666666666667
AU,AU 5CI,Selby,Selby,VIC,1----6--,,-37.916666666666664,145.38333333333333
AU,AU SSH,Sellicks Hill,Sellicks Hill,SA,1-------,,,
AU,AU SMR,Seventeen Mile Rocks/Brisbane,Seventeen Mile Rocks/Brisbane,QLD,1----6--,,-27.55,152.95
AU,AU SHB,Shark Bay,Shark Bay,WA,1-------,,,
AU,AU SOL,Shea Oak Log,Shea Oak Log,SA,1----6--,,-34.516666666666666,138.81666666666666
AU,AU SKA,Skardon River,Skardon River,QLD,1-------,,-11.75,142.01666666666668
AU,AU SKV,Skua Venture (oil terminal),Skua Venture (oil terminal),NT,1-------,,,
AU,AU SKY,Skye,Skye,SA,1----6--,,,
AU,AU SBN,South Brisbane,South Brisbane,QLD,1-3--6--,,-27.466666666666665,153.01666666666668
AU,AU STR,South Trees,South Trees,QLD,123-----,,-23.9,151.28333333333333
AU,AU SWR,South West Rocks,South West Rocks,NSW,1-------,,,
AU,AU SPO,Spreyton,Spreyton,TAS,123--6--,,-41.21666666666667,146.35
AU,AU SPB,Spring Bay,Spring Bay,TAS,1-------,,,
AU,AU STG,Stag Platform,Stag Platform,WA,1-------,,,
AU,AU STA,Stanley,Stanley,TAS,1-------,,,
AU,AU SRN,Strahan,Strahan,TAS,1--4----,,,
AU,AU SUH,Surry Hills,Surry Hills,NSW,123-----,,-33.88333333333333,151.21666666666667
AU,AU SYD,Sydney,Sydney,NSW,12345---,,-33.85,151.2
AU,AU SYL,Sylvania,Sylvania,NSW,1-------,,-34.016666666666666,151.1
AU,AU DGA,Tea Gardens,Tea Gardens,NSW,1-------,,-32.666666666666664,152.15
AU,AU GUR,The Gurdies,The Gurdies,VIC,1----6--,,-38.36666666666667,145.55
AU,AU THE,Thevenard,Thevenard,SA,1-------,,,
AU,AU CTH,Thevenard Island,Thevenard Island,WA,1-------,,-21.45,114.98333333333333
AU,AU TIS,Thursday Island,Thursday Island,QLD,1--4----,,,
AU,AU TOL,Toombul,Toombul,QLD,1----6--,,-27.4,153.05
AU,AU TRD,Tooradin,Tooradin,VIC,1-3-----,,-38.21666666666667,145.38333333333333
AU,AU TOR,Toronto,Toronto,NSW,1----6--,,-33.0,151.6
AU,AU LKU,Torrensville,Torrensville,SA,1-------,,,
AU,AU TOB,Towford Bay,Towford Bay,,1-------,,,
AU,AU TSV,Townsville,Townsville,QLD,1--4----,,,
AU,AU TRB,Trial Bay,Trial Bay,NSW,1-------,,,
AU,AU TRI,Troughton Island,Troughton Island,WA,1--4----,,-13.75,126.13333333333334
AU,AU THS,Tweed Heads South,Tweed Heads South,NSW,1-3--6--,,-28.2,153.53333333333333
AU,AU DA5,Twowells,Twowells,SA,1-3-----,,-34.6,138.5
AU,AU ULA,Ulladulla,Ulladulla,NSW,1-------,,-35.35,150.41666666666666
AU,AU ULT,Ultimo,Ultimo,NSW,1-3-----,,,
AU,AU UMB,Umbakumba,Umbakumba,NT,1-------,,-13.85,136.8
AU,AU URN,Urangan,Urangan,QLD,1-------,,,
AU,AU USL,Useless Loop,Useless Loop,WA,1-------,,,
AU,AU VGH,Van Gogh Terminal,Van Gogh Terminal,,1-------,,-21.4,114.08333333333333
AU,AU VAR,Varanus Island,Varanus Island,WA,1-------,,,
AU,AU WAL,Wallaroo,Wallaroo,SA,1-------,,,
AU,AU WNT,Wandoo Terminal,Wandoo Terminal,WA,1-------,,,
AU,AU WSN,Warners Bay,Warners Bay,NSW,1-3-----,,-32.96666666666667,151.65
AU,AU WMB,Warrnambool,Warrnambool,VIC,1--4----,,,
AU,AU WAZ,Warwick,Warwick,QLD,1--4----,,,
AU,AU WTW,Waterways,Waterways,VIC,1----6--,,-38.0,145.11666666666667
AU,AU WTN,Webberton,Webberton,WA,123-5---,,-28.75,114.61666666666666
AU,AU WEI,Weipa,Weipa,QLD,1--4----,,,
AU,AU KJH,Welland,Welland,SA,1-------,,-34.9,138.53333333333333
AU,AU WHL,Welshpool,Welshpool,VIC,1-34----,,-38.666666666666664,146.43333333333334
AU,AU WWP,Wentworth Point,Wentworth Point,NSW,1----6--,,-33.833333333333336,151.06666666666666
AU,AU WRB,Werribee,Werribee,VIC,123-----,,-37.9,144.65
AU,AU WEP,Westernport,Westernport,VIC,1-------,,,
AU,AU WSI,Whitsunday Island,Whitsunday Island,QLD,1-------,,-20.25,149.01666666666668
AU,AU WYA,Whyalla,Whyalla,SA,1--4----,,,
AU,AU WIH,Wingham,Wingham,NSW,1-------,,-31.866666666666667,152.36666666666667
AU,AU VIT,Wishart,Wishart,VIC,1-------,,,
AU,AU WNB,Withnell Bay,Withnell Bay,WA,1-3-----,,-20.583333333333332,116.78333333333333
AU,AU WOT,Wonthaggi,Wonthaggi,VIC,1-------,,,
AU,AU WOO,Woolloomooloo,Woolloomooloo,NSW,1-3-----,,-33.86666666666667,151.21666666666667
AU,AU WBT,Woollybutt (Oil facility),Woollybutt (Oil facility),WA,1-----7-,,-21.05,114.86666666666666
AU,AU WYN,Wyndham,Wyndham,WA,1--4----,,,
AU,AU YBA,Yamba,Yamba,NSW,1-------,,,
AU,AU YAM,Yampi,Yampi,WA,1-------,,,
AU,AU YRR,Yarra Junction,Yarra Junction,VIC,1-------,,-37.78333333333333,145.61666666666667
AW,AW AUA,Aruba,Aruba,,1--4----,,12.5,-69.96666666666667
AW,AW BAR,Barcadera,Barcadera,,1-------,,12.483333333333333,-69.98333333333333
AW,AW BUS,Bushiribana,Bushiribana,,1-34----,,12.55,-69.96666666666667
AW,AW DEU,Druif,Druif,,1-------,,,
AW,AW ORJ,Oranjestad,Oranjestad,,1---5---,,,
AW,AW SNL,Sint Nicolaas,Sint Nicolaas,,1-------,,,
AZ,AZ ALA,Alat,Alat,BA,1-3-----,,39.95,49.4
AZ,AZ BAK,Baku,Baku,,12-45---,,,
AZ,AZ KMZ,Khachmaz,Khachmaz,XAC,1----6--,,41.983333333333334,47.583333333333336
AZ,AZ QDG,Qaradag,Qaradag,,123-----,,40.25,49.6
AZ,AZ SHI,Shirvan,Shirvan,AGU,1-3-----,,39.916666666666664,48.916666666666664
AZ,AZ SUQ,Sumqayit,Sumqayit,SM,1-3-----,,40.583333333333336,49.666666666666664
BA,BA BIR,Biracevac,Biracevac,,1-3-----,,,
BA,BA 4CA,Cazin,Cazin,BIH,1-3-----,,44.96666666666667,15.933333333333334
BA,BA DOJ,Domaljevac,Domaljevac,,1----6--,,45.05,18.566666666666666
BA,BA FOJ,Fojnica,Fojnica,,1----6--,,43.95,17.9
BA,BA JBA,Jablanica,Jablanica,,1----6--,,43.65,17.75
BA,BA MAG,Maglaj,Maglaj,BIH,123-----,,44.53333333333333,18.083333333333332
BA,BA NEM,Neum,Neum,,1----6--,,42.916666666666664,17.616666666666667
BA,BA SMT,Sanski Most,Sanski Most,,1----6--,,44.766666666666666,16.666666666666668
BA,BA VGS,Vogosca,Vogosca,,1----6--,,43.9,18.35
BA,BA ZNK,Zvornik,Zvornik,,123-----,,44.38333333333333,19.1
BB,BB BGI,Bridgetown,Bridgetown,,1--45---,,,
BB,BB STM,Saint Michael,Saint Michael,08,1----6--,,13.116666666666667,-59.6
BD,BD ASJ,Ashuganj,Ashuganj,04,1-------,,24.033333333333335,91.01666666666667
BD,BD BZL,Barisal,Barisal,,1--4----,,,
BD,BD BNP,Benapole,Benapole,,1-------,,23.05,88.9
BD,BD CHL,Chalna,Chalna,,1-------,,,
BD,BD CGP,Chattogram,Chattogram,10,1--45---,,22.333333333333332,91.83333333333333
BD,BD KHL,Khulna,Khulna,,1-------,,,
BD,BD MGL,Mongla,Mongla,,1-------,,,
BD,BD MUN,Munshiganj,Munshiganj,35,1-------,,23.55,90.53333333333333
BD,BD NAR,Narayanganj,Narayanganj,,123-----,,,
BD,BD PCR,Panchashar,Panchashar,40,1----6--,,23.566666666666666,90.5
BD,BD PGN,Pangaon,Pangaon,13,1-3-----,,23.65,90.45
BD,BD PAY,Payra Port,Payra Port,06,1-------,,21.933333333333334,90.26666666666667
BE,BE AAB,Aalst,Aalst,VOV,1-3-----,,50.93333333333333,4.033333333333333
BE,BE AAL,Aalter,Aalter,VOV,1-3-----,,51.083333333333336,3.45
BE,BE ADK,Adinkerke,Adinkerke,VWV,1-3-----,,51.06666666666667,2.6
BE,BE AFN,Afsnee,Afsnee,VOV,1-3-----,,51.03333333333333,3.6666666666666665
BE,BE ABK,Albertkanaal ports,Albertkanaal ports,,1-------,,,
BE,BE AMY,Amay,Amay,WLG,1-3-----,,50.55,5.316666666666666
BE,BE APS,Ampsin,Ampsin,WLG,1-3-----,,50.53333333333333,5.283333333333333
BE,BE AND,Andenne,Andenne,WNA,1-3-----,,50.483333333333334,5.1
BE,BE ANB,Angleur,Angleur,WLG,123-----,,50.61666666666667,5.583333333333333
BE,BE ANH,Anhée,Anhee,WNA,1-3-----,,50.31666666666667,4.883333333333333
BE,BE AVE,Annevoie,Annevoie,WNA,1-3-----,,50.333333333333336,4.833333333333333
BE,BE ASR,Anseremme,Anseremme,WNA,1-3-----,,50.25,4.9
BE,BE AHE,Antheit,Antheit,WLG,1-3-----,,50.55,5.216666666666667
BE,BE ATO,Antoing,Antoing,WHT,1-3-----,,50.56666666666667,3.45
BE,BE ANR,Antwerpen,Antwerpen,VAN,12345---,,51.21666666666667,4.416666666666667
BE,BE AVG,Anvaing,Anvaing,WAL,1-3-----,,,
BE,BE APL,Appels,Appels,VOV,1-3-----,,51.03333333333333,4.066666666666666
BE,BE APT,Appelterre-Eichem,Appelterre-Eichem,VOV,123-----,,50.81666666666667,3.966666666666667
BE,BE AEJ,Arendonk,Arendonk,VAN,1-3-----,,51.31666666666667,5.083333333333333
BE,BE AGT,Argenteau,Argenteau,WLG,1-3-----,,50.7,5.7
BE,BE ASP,Asper,Asper,VOV,1-3-----,,50.916666666666664,3.65
BE,BE AST,Astene,Astene,VOV,1-3-----,,50.983333333333334,3.55
BE,BE ATH,Ath,Ath,WHT,123-----,,50.61666666666667,3.7666666666666666
BE,BE 7PD,Athis,Athis,WHT,1-3-----,,50.36666666666667,3.7666666666666666
BE,BE ODE,Auderghem (Oudergem)/Brussel (Bruxelles),Auderghem (Oudergem)/Brussel (Bruxelles),BRU,1-3-----,,50.81666666666667,4.433333333333334
BE,BE AVS,Auvelais,Auvelais,WNA,1-3-----,,50.45,4.616666666666667
BE,BE AVL,Avelgem,Avelgem,VWV,1-3-----,,50.766666666666666,3.4333333333333336
BE,BE W5R,Awirs,Awirs,WLG,1-3-----,,50.6,5.4
BE,BE BSR,Baasrode,Baasrode,VOV,123----B,,51.03333333333333,4.166666666666667
BE,BE BAI,Baillonville,Baillonville,WAL,1----6--,,50.28333333333333,5.333333333333333
BE,BE BLE,Balen,Balen,VAN,1-3-----,,51.166666666666664,5.15
BE,BE BGK,Balgerhoek,Balgerhoek,VOV,123-----,,51.2,3.5166666666666666
BE,BE BOA,Bas-Oha,Bas-Oha,WLG,1-3-----,,50.516666666666666,5.183333333333334
BE,BE BAT,Battel,Battel,VAN,1-3-----,,51.05,4.45
BE,BE BDU,Baudour,Baudour,WHT,1-3-----,,50.483333333333334,3.8166666666666664
BE,BE BAZ,Bazel,Bazel,VOV,1-3-----,,51.15,4.3
BE,BE BRM,Beernem,Beernem,VWV,1-3-----,,51.15,3.3333333333333335
BE,BE BER,Beerse,Beerse,VAN,1-3-----,,51.31666666666667,4.866666666666667
BE,BE BCR,Bellecourt,Bellecourt,WHT,1-3-----,,50.483333333333334,4.25
BE,BE BLO,Beloeil,Beloeil,WHT,1-3-----,,50.55,3.716666666666667
BE,BE BAN,Ben-Ahin,Ben-Ahin,WLG,1-3-----,,50.516666666666666,5.166666666666667
BE,BE BCM,Berchem,Berchem,VOV,123-----,,50.78333333333333,3.5
BE,BE BRT,Berendrecht,Berendrecht,VAN,1-3-----,,51.333333333333336,4.316666666666666
BE,BE RIN,Beringen,Beringen,VLI,123-----,,51.05,5.216666666666667
BE,BE BNU,Berneau,Berneau,WLG,1-3-----,,50.75,5.733333333333333
BE,BE BTX,Bertrix,Bertrix,WLX,1-3-----,,49.85,5.25
BE,BE BVE,Bever,Bever,VBR,1-3-----,,50.71666666666667,3.9333333333333336
BE,BE BVO,Beverlo,Beverlo,VLI,1-3-----,,51.083333333333336,5.2
BE,BE BSE,Bissegem,Bissegem,VWV,1-3-----,,50.81666666666667,3.216666666666667
BE,BE BBG,Blankenberge,Blankenberge,VWV,1-3-----,,51.31666666666667,3.1333333333333333
BE,BE WHT,Blaregnies,Blaregnies,WHT,1-3-----,,50.35,3.8833333333333333
BE,BE BLT,Blaton,Blaton,WHT,1-3-----,,50.5,3.65
BE,BE BHR,Bléharies,Bleharies,WHT,1-3-----,,50.516666666666666,3.4
BE,BE BOC,Bocholt,Bocholt,VLI,1-3-----,,51.166666666666664,5.583333333333333
BE,BE BHE,Boekhoute,Boekhoute,VOV,1-3-----,,51.25,3.716666666666667
BE,BE BOM,Boom,Boom,VAN,123-----,,51.083333333333336,4.366666666666666
BE,BE BOO,Boorsem,Boorsem,VLI,1-3-----,,50.93333333333333,5.716666666666667
BE,BE BMB,Boortmeerbeek,Boortmeerbeek,VBR,123-----,,50.983333333333334,4.566666666666666
BE,BE BON,Bornem,Bornem,VAN,1-3-----,,51.1,4.233333333333333
BE,BE BSU,Bossuit,Bossuit,VWV,1-3-----,,50.75,3.4
BE,BE BO2,Bougnies,Bougnies,WHT,1-3-----,,50.38333333333333,3.9333333333333336
BE,BE BVM,Bouvignes-sur-Meuse,Bouvignes-sur-Meuse,WNA,1-3-----,,50.266666666666666,4.9
BE,BE BRE,Bree,Bree,VLI,1-3-----,,51.13333333333333,5.6
BE,BE BGN,Briegden,Briegden,VLI,1-3-----,,50.86666666666667,5.616666666666667
BE,BE BGS,Brugge (Bruges),Brugge (Bruges),VWV,123-----,,51.21666666666667,3.2333333333333334
BE,BE BRU,Brussel (Bruxelles),Brussel (Bruxelles),BRU,1234----,,50.833333333333336,4.333333333333333
BE,BE BRY,Bruyelle,Bruyelle,WHT,1-3-----,,50.55,3.4166666666666665
BE,BE BHU,Buggenhout,Buggenhout,VOV,1-3-----,,51.016666666666666,4.2
BE,BE BUD,Burcht,Burcht,VAN,1-3-----,,51.2,4.35
BE,BE CLN,Calonne,Calonne,WHT,1-3-----,,50.56666666666667,3.4333333333333336
BE,BE KAN,Canne (Kanne),Canne (Kanne),VLI,1-3-----,,50.81666666666667,5.666666666666667
BE,BE CRL,Charleroi,Charleroi,WHT,1234----,,50.416666666666664,4.433333333333334
BE,BE CRA,Cheratte,Cheratte,WLG,1-3-----,,50.68333333333333,5.666666666666667
BE,BE CRQ,Chercq,Chercq,WHT,1-3-----,,50.583333333333336,3.4
BE,BE CTA,Chertal,Chertal,WLG,123-----,,50.68333333333333,5.666666666666667
BE,BE CTL,Châtelineau,Chatelineau,WHT,1-3-----,,50.416666666666664,4.516666666666667
BE,BE CBQ,Clabecq,Clabecq,WBR,123-----,,50.68333333333333,4.216666666666667
BE,BE COM,Comines,Comines,WHT,1-3-----,,50.766666666666666,2.9833333333333334
BE,BE COU,Couillet,Couillet,WHT,1-3-----,,50.38333333333333,4.45
BE,BE CCS,Courcelles,Courcelles,WHT,123-----,,50.46666666666667,4.366666666666666
BE,BE DKN,Daknam,Daknam,VOV,123-----,,51.13333333333333,3.9833333333333334
BE,BE DPY,Dampremy,Dampremy,WHT,1-3-----,,50.416666666666664,4.4
BE,BE DPE,De Pinte,De Pinte,VOV,123-----,,51.0,3.65
BE,BE DEZ,Deinze,Deinze,VOV,1-3-----,,50.983333333333334,3.533333333333333
BE,BE DNB,Denderbelle,Denderbelle,VOV,1-3-----,,51.0,4.083333333333333
BE,BE IAI,Denderhoutem,Denderhoutem,VOV,1-3-----,,,
BE,BE DRW,Denderleeuw,Denderleeuw,VOV,1-3-----,,50.88333333333333,4.066666666666666
BE,BE DDR,Dendermonde,Dendermonde,VOV,1-3-----,,51.03333333333333,4.116666666666666
BE,BE DSE,Dessel,Dessel,VAN,1-3-----,,51.233333333333334,5.116666666666666
BE,BE DSL,Desselgem,Desselgem,VWV,1-3-----,,50.88333333333333,3.35
BE,BE DEG,Deurne,Deurne,VAN,1-3-----,,51.21666666666667,4.466666666666667
BE,BE DXN,Deux-Acren,Deux-Acren,WHT,1-3-----,,50.733333333333334,3.85
BE,BE DPK,Diepenbeek,Diepenbeek,VLI,1-3-----,,50.9,5.4
BE,BE DIK,Diksmuide,Diksmuide,VWV,1-3-----,,51.03333333333333,2.8666666666666667
BE,BE DLS,Dilsen,Dilsen,VLI,1-3-----,,51.03333333333333,5.733333333333333
BE,BE DIA,Dinant,Dinant,WNA,1-3-----,,50.266666666666666,4.916666666666667
BE,BE DEL,Doel,Doel,VOV,1-3-----,,51.31666666666667,4.266666666666667
BE,BE TRN,Doornik (Tournai),Doornik (Tournai),WHT,123-----,ZGQ,50.6,3.3833333333333333
BE,BE DGN,Drongen,Drongen,VOV,1-3-----,,51.05,3.6666666666666665
BE,BE DUF,Duffel,Duffel,VAN,1-3-----,,51.1,4.516666666666667
BE,BE 9IR,Eben-Emael,Eben-Emael,WLG,1-3-----,,50.8,5.666666666666667
BE,BE EEK,Eeklo,Eeklo,VOV,1-3-----,,51.18333333333333,3.5666666666666664
BE,BE EBZ,Eigenbilzen,Eigenbilzen,VLI,1-3-----,,50.86666666666667,5.583333333333333
BE,BE EHT,Eindhout,Eindhout,VAN,1-3-----,,51.1,5.0
BE,BE EIN,Eine,Eine,VOV,1-3-----,,50.86666666666667,3.6166666666666667
BE,BE ESD,Eisden,Eisden,VLI,1-3-----,,50.983333333333334,5.716666666666667
BE,BE EQE,Eke,Eke,VOV,123-----,,50.95,3.6333333333333333
BE,BE EKE,Ekeren,Ekeren,VAN,1-3-----,,51.28333333333333,4.416666666666667
BE,BE EKS,Eksaarde,Eksaarde,VOV,123-----,,51.15,3.966666666666667
BE,BE EBM,Emblem,Emblem,VAN,1-3-----,,51.166666666666664,4.6
BE,BE EAM,Ename,Ename,VOV,123-----,,50.85,3.6333333333333333
BE,BE ENG,Engis,Engis,WLG,1-3-----,,50.583333333333336,5.416666666666667
BE,BE REQ,Erquelinnes,Erquelinnes,WHT,1-3-----,,50.3,4.116666666666666
BE,BE ERE,Ertvelde,Ertvelde,VOV,1-3-----,,51.18333333333333,3.75
BE,BE EFS,Escanaffles,Escanaffles,WHT,1-3-----,,50.75,3.4333333333333336
BE,BE SPI,Espierres (Spiere),Espierres (Spiere),VWV,1-3-----,,50.71666666666667,3.35
BE,BE EQM,Esquelmes,Esquelmes,WHT,1-3-----,,50.666666666666664,3.3333333333333335
BE,BE EMP,Estaimpuis,Estaimpuis,WHT,123-----,,50.7,3.25
BE,BE EVM,Evergem,Evergem,VOV,1-3-----,,51.11666666666667,3.7
BE,BE FCS,Farciennes,Farciennes,WHT,123-----,,50.43333333333333,4.55
BE,BE FEY,Feluy,Feluy,WHT,1-3-----,,50.56666666666667,4.25
BE,BE FWI,Flawinne,Flawinne,WNA,1-3-----,,50.46666666666667,4.8
BE,BE FLO,Floreffe,Floreffe,WNA,1-3-----,,50.43333333333333,4.783333333333333
BE,BE FFX,Floriffoux,Floriffoux,WNA,1-3-----,,50.45,4.766666666666667
BE,BE FMA,Flémalle,Flemalle,WLG,1-3-----,,50.6,5.466666666666667
BE,BE FLN,Flône,Flone,WLG,1-3-----,,50.56666666666667,5.333333333333333
BE,BE FVT,Fontaine-Valmont,Fontaine-Valmont,WHT,1-3-----,,50.31666666666667,4.2
BE,BE FRM,Fortem,Fortem,VWV,1-3-----,,51.016666666666666,2.7333333333333334
BE,BE FNR,Franière,Franiere,WNA,123-----,,50.43333333333333,4.733333333333333
BE,BE GVR,Gavere,Gavere,VOV,1-3-----,,50.93333333333333,3.6666666666666665
BE,BE GEL,Geel,Geel,VAN,1-3-----,,51.166666666666664,5.0
BE,BE GLK,Gellik,Gellik,VLI,1-3-----,,50.88333333333333,5.6
BE,BE GBH,Genenbos,Genenbos,VLI,1-3-----,,51.016666666666666,5.233333333333333
BE,BE GNK,Genk,Genk,VLI,1-3-----,,50.96666666666667,5.5
BE,BE GNE,Gent (Ghent),Gent (Ghent),VOV,1234----,,51.05,3.716666666666667
BE,BE GBU,Gentbrugge,Gentbrugge,VOV,1-3-----,,51.05,3.75
BE,BE GEA,Geraardsbergen,Geraardsbergen,VOV,1-3-----,,50.766666666666666,3.8666666666666667
BE,BE GHL,Ghlin,Ghlin,WHT,1-3-----,,50.46666666666667,3.8833333333333333
BE,BE GDN,Godinne,Godinne,WNA,123-----,,50.35,4.866666666666667
BE,BE GDE,Godsheide,Godsheide,VLI,1-3-----,,50.93333333333333,5.383333333333334
BE,BE GOS,Gosselies,Gosselies,WHT,1-3-----,,50.46666666666667,4.416666666666667
BE,BE GGM,Grembergen,Grembergen,VOV,1-3-----,,51.05,4.1
BE,BE GRB,Grimbergen,Grimbergen,VBR,1-3-----,,50.93333333333333,4.383333333333334
BE,BE GBB,Grobbendonk,Grobbendonk,VAN,1-3-----,,51.2,4.716666666666667
BE,BE GRO,Groot Bijgaarden,Groot Bijgaarden,BRU,123-----,,50.86666666666667,4.266666666666667
BE,BE HCT,Haccourt,Haccourt,WLG,1-3-----,,50.733333333333334,5.666666666666667
BE,BE HFB,Halle,Halle,VBR,1-3-----,,50.733333333333334,4.233333333333333
BE,BE HLU,Halluin,Halluin,VWV,123-----,,50.78333333333333,3.1333333333333333
BE,BE HMB,Ham-sur-Sambre,Ham-sur-Sambre,WNA,1-3-----,,50.43333333333333,4.666666666666667
BE,BE HMM,Hamme,Hamme,VOV,123-----,,51.083333333333336,3.533333333333333
BE,BE HAM,Hamsehoeven,Hamsehoeven,VLI,1-3-----,,51.11666666666667,5.183333333333334
BE,BE HNA,Handzame,Handzame,VWV,123-----,,51.016666666666666,3.0
BE,BE HBE,Hansbeke,Hansbeke,VOV,1-3-----,,51.06666666666667,3.533333333333333
BE,BE HCS,Harchies,Harchies,WHT,1-3-----,,50.483333333333334,3.6833333333333336
BE,BE HEJ,Harelbeke,Harelbeke,VWV,1-3-----,,50.85,3.3
BE,BE HAR,Haren,Haren,VBR,123-----,,50.88333333333333,4.416666666666667
BE,BE HSS,Hasselt,Hasselt,VLI,1-3-----,QHA,50.93333333333333,5.333333333333333
BE,BE HPD,Hastière-par-delà,Hastiere-par-dela,WNA,123-----,,50.21666666666667,4.833333333333333
BE,BE HTJ,Hautrage,Hautrage,WHT,1-3-----,,50.483333333333334,3.75
BE,BE HRE,Havré,Havre,WHT,1-3-----,,50.46666666666667,4.033333333333333
BE,BE HEE,Heer,Heer,WNA,1-3-----,,50.166666666666664,4.833333333333333
BE,BE HDK,Heindonk,Heindonk,VAN,1-3-----,,51.06666666666667,4.4
BE,BE HKN,Helkijn,Helkijn,VWV,1-3-----,,50.733333333333334,3.3833333333333333
BE,BE HEX,Hemiksem,Hemiksem,VAN,1-3-----,,51.15,4.35
BE,BE HNS,Hensies,Hensies,WHT,1-3-----,,50.43333333333333,3.6666666666666665
BE,BE HYB,Herdersem,Herdersem,VOV,1-3-----,,50.96666666666667,4.066666666666666
BE,BE HET,Herent,Herent,VLI,1-3-----,,51.2,5.45
BE,BE HER,Herentals,Herentals,VAN,1-3-----,,51.18333333333333,4.833333333333333
BE,BE HMH,Hermalle-sous-Huy,Hermalle-sous-Huy,WLG,1-3-----,,50.55,5.366666666666666
BE,BE HTM,Hermeton-sur-Meuse,Hermeton-sur-Meuse,WNA,123-----,,50.2,4.816666666666666
BE,BE HRS,Herstal,Herstal,WLG,1-3-----,,50.666666666666664,5.633333333333333
BE,BE TTJ,Heultje,Heultje,BRU,1-3-----,,,
BE,BE HVE,Hever,Hever,VBR,1-3-----,,51.0,4.55
BE,BE HBN,Hoboken,Hoboken,VAN,1-3-----,,51.166666666666664,4.35
BE,BE HSD,Hofstade,Hofstade,VOV,1-3-----,,50.96666666666667,4.033333333333333
BE,BE HOL,Hollain,Hollain,WHT,1-3-----,,50.53333333333333,3.4166666666666665
BE,BE HGA,Houdeng-Aimeries,Houdeng-Aimeries,WHT,1-3-----,,50.483333333333334,4.133333333333334
BE,BE HGG,Houdeng-Goegnies,Houdeng-Goegnies,WHT,1-3-----,,50.483333333333334,4.15
BE,BE HRP,Hourpes,Hourpes,WHT,1-3-----,,50.36666666666667,4.283333333333333
BE,BE HUX,Houx,Houx,WNA,123-----,,50.3,4.9
BE,BE WAH,Hoves,Hoves,WAL,1-3-----,,,
BE,BE HUM,Humbeek,Humbeek,VBR,1-3-----,,50.96666666666667,4.383333333333334
BE,BE HUY,Huy,Huy,WLG,1-3-----,,50.516666666666666,5.233333333333333
BE,BE IGE,Ingelmunster,Ingelmunster,VWV,1-3-----,,50.916666666666664,3.25
BE,BE ISR,Isières,Isieres,WHT,1-3-----,,50.666666666666664,3.8166666666666664
BE,BE ITR,Itter (Ittre),Itter (Ittre),WBR,1-3-----,,50.65,4.266666666666667
BE,BE YRT,Ivoz-Ramet,Ivoz-Ramet,WLG,1-3-----,,50.583333333333336,5.433333333333334
BE,BE IZG,Izegem,Izegem,VWV,1-3-----,,50.916666666666664,3.2
BE,BE JAM,Jambes,Jambes,WNA,123-----,,50.45,4.883333333333333
BE,BE JAV,Java,Java,WLG,1-3-----,,50.516666666666666,5.15
BE,BE JPS,Jemeppe-sur-Sambre,Jemeppe-sur-Sambre,WNA,1-3-----,,50.46666666666667,4.666666666666667
BE,BE JAK,Jupille-sur-Meuse,Jupille-sur-Meuse,WLG,1-3-----,,50.65,5.633333333333333
BE,BE KCT,Kachtem,Kachtem,VWV,123-----,,50.93333333333333,3.183333333333333
BE,BE KAI,Kain,Kain,WHT,1-3-----,,50.63333333333333,3.3666666666666667
BE,BE KOU,Kallo,Kallo,VOV,1-3-----,,51.25,4.283333333333333
BE,BE KMH,Kampenhout,Kampenhout,VBR,1-3-----,,50.95,4.55
BE,BE KPB,Kapelle-op-den-Bos,Kapelle-op-den-Bos,VBR,1-3-----,,51.016666666666666,4.366666666666666
BE,BE KLE,Kaulille,Kaulille,VLI,1-3-----,,51.18333333333333,5.516666666666667
BE,BE KHN,Kerkhove,Kerkhove,VWV,1-3-----,,50.8,3.5
BE,BE KSN,Kessenich,Kessenich,VLI,1-3-----,,51.15,5.816666666666666
BE,BE KDE,Kieldrecht,Kieldrecht,VOV,1-3-----,,51.28333333333333,4.166666666666667
BE,BE KRO,Kinrooi,Kinrooi,VLI,1-3-----,,51.15,5.75
BE,BE KVE,Klein Veerle,Klein Veerle,VAN,1-3-----,,51.333333333333336,4.666666666666667
BE,BE KSR,Kluisbergen,Kluisbergen,VOV,1-3-----,,50.78333333333333,3.5166666666666666
BE,BE KNS,Knesselaere,Knesselaere,VOV,1-3-----,,51.13333333333333,3.4166666666666665
BE,BE KJK,Kortrijk,Kortrijk,VWV,1234----,,50.833333333333336,3.2666666666666666
BE,BE KEK,Kruibeke,Kruibeke,VOV,1-3-----,,51.166666666666664,4.316666666666666
BE,BE KRN,Kuringen,Kuringen,VLI,123-----,,50.95,5.3
BE,BE KUU,Kuurne,Kuurne,VWV,1-3-----,,50.85,3.283333333333333
BE,BE KWA,Kwaadmechelen,Kwaadmechelen,VLI,1-3-----,,51.1,5.133333333333334
BE,BE RAR,La Roche-en-Ardenne,La Roche-en-Ardenne,WLX,1-3-----,,50.18333333333333,5.583333333333333
BE,BE BSI,Labuissière,Labuissiere,WHT,1-3-----,,50.31666666666667,4.166666666666667
BE,BE LUZ,Ladeuze,Ladeuze,WHT,1-3-----,,50.56666666666667,3.7666666666666666
BE,BE LAN,Lanaken,Lanaken,VLI,1-3-----,,50.88333333333333,5.65
BE,BE LNY,Lanaye (Ternaaien),Lanaye (Ternaaien),WLG,1-3-----,,50.78333333333333,5.683333333333334
BE,BE LGM,Landegem,Landegem,VOV,123-----,,51.05,3.5666666666666664
BE,BE LDS,Landelies,Landelies,WHT,1-3-----,,50.38333333333333,4.35
BE,BE LGB,Langerbrugge,Langerbrugge,VOV,1-3-----,,51.11666666666667,3.7333333333333334
BE,BE LGO,Langerlo,Langerlo,VLI,1-3-----,,50.95,5.5
BE,BE LNK,Lanklaar,Lanklaar,VLI,1-3-----,,51.016666666666666,5.716666666666667
BE,BE LQA,Lanquesaint,Lanquesaint,WHT,123-----,,50.65,3.8
BE,BE LPI,Laplaigne,Laplaigne,WHT,1-3-----,,50.516666666666666,3.4333333333333336
BE,BE LAW,Lauwe,Lauwe,VWV,123-----,,50.8,3.183333333333333
BE,BE ROU,Le Roeulx,Le Roeulx,WHT,1-3-----,,50.5,4.1
BE,BE LRG,Ledeberg,Ledeberg,VOV,1-3-----,,51.03333333333333,3.75
BE,BE LFE,Leffinge,Leffinge,VWV,1-3-----,,51.166666666666664,2.8833333333333333
BE,BE LBE,Lembeek,Lembeek,VBR,1-3-----,,50.71666666666667,4.216666666666667
BE,BE LPG,Leopoldsburg,Leopoldsburg,VLI,1-3-----,,51.11666666666667,5.25
BE,BE LES,Lessines,Lessines,WHT,123-----,,50.71666666666667,3.8333333333333335
BE,BE LEU,Leuven,Leuven,VBR,1-3-----,ZGK,50.88333333333333,4.7
BE,BE LHK,Liefkenshoek,Liefkenshoek,VOV,1-3-----,,51.016666666666666,3.8833333333333333
BE,BE LIE,Lier,Lier,VAN,1-3-----,,51.13333333333333,4.566666666666666
BE,BE LIL,Lillo,Lillo,VAN,1-3-----,,51.3,4.3
BE,BE LSG,Lissewege,Lissewege,VWV,1-3-----,,51.3,3.183333333333333
BE,BE LIX,Lixhe,Lixhe,WLG,1-3-----,,50.75,5.666666666666667
BE,BE LGG,Liège,Liege,WLG,1--4----,,50.63333333333333,5.566666666666666
BE,BE LBS,Lobbes,Lobbes,WHT,1-3-----,,50.35,4.25
BE,BE LOK,Lokeren,Lokeren,VOV,1-3-----,,51.1,3.9833333333333334
BE,BE LML,Lommel,Lommel,VLI,1-3-----,,51.233333333333334,5.3
BE,BE LOT,Lot,Lot,VBR,123-----,,50.766666666666666,4.266666666666667
BE,BE LOZ,Lozen,Lozen,VLI,1-3-----,,51.2,5.566666666666666
BE,BE LUM,Lummen,Lummen,VLI,1-3-----,,50.983333333333334,5.2
BE,BE LUI,Lustin,Lustin,WNA,123-----,,50.38333333333333,4.9
BE,BE MSK,Maaseik,Maaseik,VLI,1-3-----,,51.1,5.8
BE,BE MMN,Maasmechelen,Maasmechelen,VLI,1-3-----,,50.81666666666667,5.666666666666667
BE,BE MFF,Maffle,Maffle,WHT,1-3-----,,50.61666666666667,3.8
BE,BE MSR,Maisières,Maisieres,WHT,1-3-----,,50.483333333333334,3.95
BE,BE MAN,Manage,Manage,WHT,1-3-----,,50.5,4.216666666666667
BE,BE WBR,Maransart,Maransart,WBR,1----6--,,50.666666666666664,4.45
BE,BE MLD,Marche-les-Dames,Marche-les-Dames,WNA,1-3-----,,50.483333333333334,4.966666666666667
BE,BE MAP,Marchienne-au-Pont,Marchienne-au-Pont,WHT,1-3-----,,50.4,4.383333333333334
BE,BE MLY,Marly,Marly,VBR,1-------,,50.88333333333333,4.383333333333334
BE,BE MHN,Massenhoven,Massenhoven,VAN,1-3-----,,51.2,4.616666666666667
BE,BE MBY,Maubray,Maubray,WHT,123-----,,50.55,3.5
BE,BE MRG,Maurage,Maurage,WHT,1-3-----,,50.45,4.083333333333333
BE,BE ECH,Mechelen,Mechelen,VAN,1-3-----,ZGP,51.03333333333333,4.466666666666667
BE,BE MEE,Meer,Meer,VAN,1-3-----,,51.45,4.733333333333333
BE,BE MEH,Meerhout,Meerhout,VAN,1-3-----,,51.13333333333333,5.083333333333333
BE,BE MGM,Meigem,Meigem,VOV,1-3-----,,51.016666666666666,3.533333333333333
BE,BE MEG,Meilegem,Meilegem,VOV,1-3-----,,50.9,3.7
BE,BE MEL,Melle,Melle,VOV,1-3-----,,51.0,3.8
BE,BE ELS,Melsen,Melsen,VOV,1-3-----,,50.96666666666667,3.7
BE,BE MEN,Menen,Menen,VWV,123-----,,50.8,3.1166666666666667
BE,BE MRL,Merelbeke,Merelbeke,VOV,1-3-----,,51.0,3.75
BE,BE MRD,Merendree,Merendree,VOV,1-3-----,,51.083333333333336,3.5833333333333335
BE,BE MRM,Merkem,Merkem,VWV,1-3-----,,50.95,2.85
BE,BE MRK,Merksem,Merksem,VAN,1-3-----,,51.25,4.45
BE,BE MSP,Mespelare,Mespelare,VOV,1-3-----,,51.0,4.066666666666666
BE,BE MNO,Moen,Moen,VWV,1-3-----,,50.766666666666666,3.4
BE,BE MEW,Moerbeke-Waas,Moerbeke-Waas,VOV,1-3-----,,51.166666666666664,3.9333333333333336
BE,BE MRB,Moerbrugge,Moerbrugge,VWV,123-----,,51.166666666666664,3.2666666666666666
BE,BE MZK,Moerzeke,Moerzeke,VOV,1-3-----,,51.06666666666667,4.15
BE,BE MGN,Moignelée,Moignelee,WNA,123-----,,50.45,4.583333333333333
BE,BE MLO,Mol,Mol,VAN,1-3-----,,51.18333333333333,5.1
BE,BE MSJ,Molenbeek-Saint-Jean (Sint-Jans-Molenbeek)/Brussel (Bruxelles),Molenbeek-Saint-Jean (Sint-Jans-Molenbeek)/Brussel (Bruxelles),BRU,1-3-----,,50.85,4.316666666666666
BE,BE MSS,Monceau-sur-Sambre,Monceau-sur-Sambre,WHT,1-3-----,,50.416666666666664,4.366666666666666
BE,BE MQS,Mons,Mons,WHT,1-3-----,QMO,50.45,3.9333333333333336
BE,BE MSI,Monsin,Monsin,WLG,1-3-----,,50.666666666666664,5.633333333333333
BE,BE MGS,Montignies-sur-Sambre,Montignies-sur-Sambre,WHT,1-3-----,,50.4,4.5
BE,BE MRO,Mornimont,Mornimont,WNA,123-----,,50.45,4.7
BE,BE MUI,Muizen,Muizen,VAN,123-----,,51.016666666666666,4.516666666666667
BE,BE NAM,Namur,Namur,WNA,123-----,QNM,50.46666666666667,4.866666666666667
BE,BE NMC,Namêche,Nameche,WNA,123-----,,50.46666666666667,5.0
BE,BE NVH,Neder-Over-Heembeek,Neder-Over-Heembeek,VBR,1-3-----,,50.9,4.383333333333334
BE,BE NHA,Neerharen,Neerharen,VLI,1-3-----,,50.916666666666664,5.683333333333334
BE,BE NRT,Neeroeteren,Neeroeteren,VLI,1-3-----,,51.083333333333336,5.7
BE,BE NRP,Neerpelt,Neerpelt,VLI,123-----,,51.21666666666667,5.416666666666667
BE,BE NFE,Neffe,Neffe,WNA,123-----,,50.233333333333334,4.916666666666667
BE,BE NHY,Neuville-sous-Huy,Neuville-sous-Huy,WLG,123-----,,50.53333333333333,5.283333333333333
BE,BE NVL,Nevele,Nevele,VOV,1-3-----,,51.03333333333333,3.55
BE,BE NIL,Niel,Niel,VAN,1-3-----,,51.11666666666667,4.333333333333333
BE,BE NIE,Nieuwpoort,Nieuwpoort,VWV,1-3-----,,51.13333333333333,2.75
BE,BE NYL,Nijlen,Nijlen,VAN,1-3-----,,51.166666666666664,4.65
BE,BE NBA,Nimy,Nimy,WHT,1-3-----,,50.46666666666667,3.95
BE,BE NNV,Ninove,Ninove,VOV,123-----,,50.833333333333336,4.016666666666667
BE,BE NVN,Noeveren,Noeveren,VAN,1-3-----,,51.1,4.35
BE,BE OBR,Obourg,Obourg,WHT,123-----,,50.46666666666667,4.0
BE,BE OEL,Oelegem,Oelegem,VAN,1-3-----,,51.21666666666667,4.583333333333333
BE,BE OSG,Oeselgem,Oeselgem,VWV,1-3-----,,50.93333333333333,3.4333333333333336
BE,BE OEV,Oevel,Oevel,VAN,1-3-----,,51.13333333333333,4.883333333333333
BE,BE OQC,Oisquercq,Oisquercq,WBR,123-----,,50.666666666666664,4.216666666666667
BE,BE OKG,Okegem,Okegem,VOV,123-----,,50.85,4.05
BE,BE OLN,Olen,Olen,VAN,1-3-----,,51.15,4.85
BE,BE OGS,Ollignies,Ollignies,WHT,1-3-----,,50.68333333333333,3.85
BE,BE OBT,Ombret-Rawsa,Ombret-Rawsa,WLG,1-3-----,,50.55,5.333333333333333
BE,BE OZL,Onkerzele,Onkerzele,VOV,123-----,,50.78333333333333,3.9
BE,BE OOG,Ooigem,Ooigem,VWV,1-3-----,,50.88333333333333,3.3333333333333335
BE,BE OST,Oostende (Ostend),Oostende (Ostend),VWV,123-----,,51.2,2.9166666666666665
BE,BE OTL,Oosterlo,Oosterlo,VAN,1-3-----,,51.11666666666667,4.966666666666667
BE,BE OKP,Oostkamp,Oostkamp,VWV,1-3-----,,51.15,3.2333333333333334
BE,BE OTK,Oostkerke,Oostkerke,VWV,1-3-----,,51.28333333333333,3.283333333333333
BE,BE OHN,Ophoven,Ophoven,VLI,1-3-----,,51.11666666666667,5.8
BE,BE OPI,Opitter,Opitter,VLI,1-3-----,,51.11666666666667,5.65
BE,BE ORR,Orroir,Orroir,WHT,123-----,,50.75,3.466666666666667
BE,BE OTH,Oud-Turnhout,Oud-Turnhout,VAN,1-3-----,,51.31666666666667,4.983333333333333
BE,BE OUD,Oudenaarde,Oudenaarde,VOV,1-3-----,,50.85,3.6
BE,BE OBG,Oudenburg,Oudenburg,VWV,1-3-----,,51.18333333333333,3.0
BE,BE OUG,Ougrée,Ougree,WLG,1-3-----,,50.6,5.533333333333333
BE,BE OPY,Oupeye,Oupeye,WLG,1-3-----,,50.7,5.65
BE,BE OLE,Overboelare,Overboelare,VOV,1-3-----,,50.75,3.85
BE,BE OVE,Overpelt,Overpelt,VLI,123-----,,51.21666666666667,5.416666666666667
BE,BE PAL,Paal,Paal,VLI,1-3-----,,51.03333333333333,5.183333333333334
BE,BE PML,Pamel,Pamel,VBR,1-3-----,,50.833333333333336,4.066666666666666
BE,BE PCQ,Pecq,Pecq,WHT,1-3-----,,50.68333333333333,3.3333333333333335
BE,BE PLY,Petit-Lanaye,Petit-Lanaye,WLG,1-3-----,,50.78333333333333,5.683333333333334
BE,BE PTP,Pijp Tabak,Pijp Tabak,VAN,1-3-----,,51.233333333333334,4.35
BE,BE PKH,Pollinkhove,Pollinkhove,VWV,1-3-----,,50.96666666666667,2.7333333333333334
BE,BE PME,Pommeroeul,Pommeroeul,WHT,1-3-----,,50.45,3.7
BE,BE PLO,Pont-de-Loup,Pont-de-Loup,WHT,1-3-----,,50.416666666666664,4.533333333333333
BE,BE PCL,Pont-à-Celles,Pont-a-Celles,WHT,1-3-----,,50.5,4.35
BE,BE PTS,Pottes,Pottes,WHT,1-3-----,,50.733333333333334,3.4
BE,BE PFE,Profondeville,Profondeville,WNA,1-3-----,,50.38333333333333,4.866666666666667
BE,BE PUU,Puurs,Puurs,VAN,1-3-----,,51.083333333333336,4.283333333333333
BE,BE PES,Péronnes,Peronnes,WHT,1-3-----,,50.55,3.4333333333333336
BE,BE PLB,Péronnes/Binche,Peronnes/Binche,WHT,1-3-----,,50.43333333333333,4.133333333333334
BE,BE XXX,RIS Inland waterways,RIS Inland waterways,,1-------,,,
BE,BE RCI,Ramegnies-Chin,Ramegnies-Chin,WHT,123-----,,50.65,3.3166666666666664
BE,BE RVS,Ravels,Ravels,VAN,1-3-----,,51.36666666666667,5.0
BE,BE RBX,Rebaix,Rebaix,WHT,1-3-----,,50.65,3.783333333333333
BE,BE REK,Rekkem,Rekkem,VOV,1-3-----,,50.833333333333336,3.6166666666666667
BE,BE RGE,Reninge,Reninge,VWV,1-3-----,,50.95,2.783333333333333
BE,BE NRY,Renory,Renory,WLG,1-3-----,,50.6,5.55
BE,BE RTI,Retie,Retie,VAN,1-3-----,,51.266666666666666,5.066666666666666
BE,BE RCL,Richelle,Richelle,WLG,123-----,,50.71666666666667,5.683333333333334
BE,BE RIE,Rieme,Rieme,VOV,1-3-----,,51.166666666666664,3.783333333333333
BE,BE RIJ,Rijkevorsel,Rijkevorsel,VAN,1-3-----,,51.35,4.766666666666667
BE,BE RVE,Rivière,Riviere,WNA,1-3-----,,50.35,4.866666666666667
BE,BE RJT,Rocourt,Rocourt,WAL,1----6--,,50.68333333333333,5.55
BE,BE RBE,Roesbrugge,Roesbrugge,VWV,1-3-----,,50.916666666666664,2.6166666666666667
BE,BE RHA,Roesbrugge-Haringe,Roesbrugge-Haringe,VWV,1-3-----,,50.916666666666664,2.6166666666666667
BE,BE ROE,Roeselare,Roeselare,VWV,1-3-----,,50.95,3.1333333333333333
BE,BE RQS,Ronquières,Ronquieres,WHT,123-----,,50.6,4.216666666666667
BE,BE ROS,Roselies,Roselies,WHT,123-----,,50.43333333333333,4.583333333333333
BE,BE RCT,Roucourt,Roucourt,WHT,1-3-----,,50.53333333333333,3.5833333333333335
BE,BE ROX,Roux,Roux,WHT,1-3-----,,50.43333333333333,4.383333333333334
BE,BE RUE,Ruien,Ruien,VOV,1-3-----,,50.766666666666666,3.4833333333333334
BE,BE RUI,Ruisbroek,Ruisbroek,VBR,1-3-----,,50.78333333333333,4.3
BE,BE SVG,Ruisbroek,Ruisbroek,VAN,1-3-----,,51.083333333333336,4.333333333333333
BE,BE RUS,Rumst,Rumst,VAN,1-3-----,,51.083333333333336,4.416666666666667
BE,BE RPM,Rupelmonde,Rupelmonde,VOV,1-3-----,,51.13333333333333,4.283333333333333
BE,BE GHI,Saint-Ghislain,Saint-Ghislain,WHT,123-----,,50.45,3.8166666666666664
BE,BE SLS,Salles,Salles,WHT,1-3-----,,50.05,4.25
BE,BE SSO,Samson,Samson,WNA,123-----,,50.46666666666667,4.983333333333333
BE,BE VIT,Sankt Vith,Sankt Vith,,123-----,,50.666666666666664,6.7
BE,BE SLJ,Sas-Slijkens,Sas-Slijkens,VWV,123-----,,51.21666666666667,2.95
BE,BE SPE,Scheepsdale,Scheepsdale,VWV,1-3-----,,51.21666666666667,3.2
BE,BE SHR,Schelderode,Schelderode,VOV,1-3-----,,50.96666666666667,3.716666666666667
BE,BE SHL,Schelle,Schelle,VAN,1-3-----,,51.13333333333333,4.333333333333333
BE,BE SHB,Schellebelle,Schellebelle,VOV,1-3-----,,51.016666666666666,3.9333333333333336
BE,BE SCE,Schilde,Schilde,VAN,1-3-----,,51.233333333333334,4.566666666666666
BE,BE SNE,Schoonaarde,Schoonaarde,VOV,1-3-----,,51.0,4.016666666666667
BE,BE SCT,Schoten,Schoten,VAN,1-3-----,,51.25,4.5
BE,BE SGX,Sclaigneaux,Sclaigneaux,WNA,1-3-----,,50.5,5.0
BE,BE SLY,Sclayn,Sclayn,WNA,1-3-----,,50.483333333333334,5.033333333333333
BE,BE SSN,Sclessin,Sclessin,WLG,1-3-----,,50.61666666666667,5.55
BE,BE SES,Seilles,Seilles,WNA,123-----,,50.5,5.066666666666666
BE,BE SEN,Seneffe,Seneffe,WHT,123-----,,50.516666666666666,4.25
BE,BE ZER,Seraing,Seraing,WLG,1-3-----,,50.6,5.483333333333333
BE,BE SKA,Sint Katelijne Waver,Sint Katelijne Waver,,1-3-----,,,
BE,BE SAS,Sint-Amands,Sint-Amands,VAN,1-3-----,,51.05,4.2
BE,BE SAN,Sint-Andries,Sint-Andries,VWV,1-3-----,,51.18333333333333,3.183333333333333
BE,BE HSL,Sint-Huibrechts-Lille,Sint-Huibrechts-Lille,VLI,1-3-----,,51.21666666666667,5.483333333333333
BE,BE JKP,Sint-Jacobs-Kapelle,Sint-Jacobs-Kapelle,VWV,123-----,,51.0,2.8166666666666664
BE,BE SJG,Sint-Job-in-'t-Goor,Sint-Job-in-'t-Goor,VAN,1-3-----,,51.3,4.566666666666666
BE,BE SJR,Sint-Joris,Sint-Joris,VWV,1-3-----,,51.13333333333333,2.7666666666666666
BE,BE SJO,Sint-Jozef-Olen,Sint-Jozef-Olen,VAN,1-3-----,,51.18333333333333,4.883333333333333
BE,BE SLN,Sint-Lenaarts,Sint-Lenaarts,VAN,1-3-----,,51.35,4.683333333333334
BE,BE SML,Sint-Martens-Latem,Sint-Martens-Latem,VOV,1-3-----,,51.016666666666666,3.6333333333333333
BE,BE SSK,Snaaskerke,Snaaskerke,VWV,1-3-----,,51.18333333333333,2.9333333333333336
BE,BE SSB,Solre-sur-Sambre,Solre-sur-Sambre,WHT,123-----,,50.3,4.133333333333334
BE,BE SDT,Soudromont,Soudromont,WHT,123-----,,50.516666666666666,4.25
BE,BE SBG,Stambruges,Stambruges,WHT,1-3-----,,50.5,3.716666666666667
BE,BE SGM,Stasegem,Stasegem,VWV,1-3-----,,50.833333333333336,3.3
BE,BE STT,Statte,Statte,WLG,123-----,,50.53333333333333,5.216666666666667
BE,BE SBE,Steenbrugge,Steenbrugge,VWV,1-3-----,,51.18333333333333,3.2333333333333334
BE,BE SDP,Steendorp,Steendorp,VOV,1-3-----,,51.13333333333333,4.266666666666667
BE,BE SVN,Stevensvennen,Stevensvennen,VLI,1-3-----,,51.21666666666667,5.233333333333333
BE,BE SKR,Stokrooie,Stokrooie,VLI,1-3-----,,50.96666666666667,5.266666666666667
BE,BE TMS,Tamines,Tamines,WNA,1-3-----,,50.43333333333333,4.6
BE,BE TSE,Temse,Temse,VOV,1-3-----,,51.13333333333333,4.216666666666667
BE,BE TFN,Teralfene,Teralfene,VBR,123-----,,50.9,4.1
BE,BE TDK,Terdonk,Terdonk,VOV,1-3-----,,51.15,3.783333333333333
BE,BE TGE,Tergnée,Tergnee,WHT,123-----,,50.43333333333333,4.55
BE,BE TGN,Terhagen,Terhagen,VAN,1-3-----,,51.083333333333336,4.4
BE,BE TER,Ternat,Ternat,VBR,1-3-----,,50.86666666666667,4.183333333333334
BE,BE TET,Tertre,Tertre,WHT,1-3-----,,50.46666666666667,3.8
BE,BE TES,Tessenderlo,Tessenderlo,VLI,1-3-----,,51.06666666666667,5.083333333333333
BE,BE THE,Thieu,Thieu,WHT,1-3-----,,50.46666666666667,4.083333333333333
BE,BE TRG,Thorembais-les-Beguines,Thorembais-les-Beguines,WBR,1-3-----,,,
BE,BE TOB,Thorntonbank,Thorntonbank,,1-------,,51.63333333333333,2.9166666666666665
BE,BE THU,Thuin,Thuin,WHT,1-3-----,,50.333333333333336,4.283333333333333
BE,BE TIL,Tielrode,Tielrode,VOV,1-3-----,,51.11666666666667,4.183333333333334
BE,BE THG,Tihange,Tihange,WLG,1-3-----,,50.53333333333333,5.266666666666667
BE,BE TLK,Tildonk,Tildonk,VBR,1-3-----,,50.95,4.633333333333333
BE,BE TLR,Tilleur,Tilleur,WLG,123-----,,50.61666666666667,5.533333333333333
BE,BE TIS,Tisselt,Tisselt,VAN,1-3-----,,51.03333333333333,4.366666666666666
BE,BE TGL,Tongerlo,Tongerlo,VLI,1-3-----,,51.13333333333333,5.666666666666667
BE,BE TSL,Tourinnes-St-Lambert,Tourinnes-St-Lambert,WAL,1----6--,,50.63333333333333,4.716666666666667
BE,BE TBE,Tournebride,Tournebride,VLI,1-3-----,,50.9,5.683333333333334
BE,BE TUR,Turnhout,Turnhout,VAN,1-3-----,,51.31666666666667,4.95
BE,BE UIT,Uitbergen,Uitbergen,VOV,1-3-----,,51.016666666666666,3.95
BE,BE VSB,Val Saint-Lambert,Val Saint-Lambert,WLG,1-3-----,,50.583333333333336,5.483333333333333
BE,BE VLX,Vaulx,Vaulx,WHT,1-3-----,,50.06666666666667,4.366666666666666
BE,BE VWZ,Veldwezelt,Veldwezelt,VLI,1-3-----,,50.86666666666667,5.633333333333333
BE,BE VBG,Verbrande Brug,Verbrande Brug,VBR,1-3-----,,50.95,4.416666666666667
BE,BE VEU,Veurne,Veurne,VWV,1-3-----,,51.06666666666667,2.6666666666666665
BE,BE VZI,Vezin,Vezin,WNA,123-----,,50.5,5.016666666666667
BE,BE VSL,Viersel,Viersel,VAN,1-3-----,,51.18333333333333,4.633333333333333
BE,BE VVI,Viesville,Viesville,WHT,1-3-----,,50.483333333333334,4.4
BE,BE VSH,Ville-sur-Haine,Ville-sur-Haine,WHT,1-3-----,,50.46666666666667,4.05
BE,BE VIL,Vilvoorde,Vilvoorde,VBR,1-3-----,,50.93333333333333,4.433333333333334
BE,BE VGL,Virginal-Samme,Virginal-Samme,WBR,1-3-----,,50.63333333333333,4.183333333333334
BE,BE VHN,Vroenhoven,Vroenhoven,VLI,1-3-----,,50.81666666666667,5.633333333333333
BE,BE WDM,Waardamme,Waardamme,VWV,1-3-----,,51.11666666666667,3.216666666666667
BE,BE WAA,Waasmunster,Waasmunster,VOV,1-3-----,,51.1,4.083333333333333
BE,BE WLM,Walem,Walem,VAN,1-3-----,,51.06666666666667,4.466666666666667
BE,BE WND,Wandre,Wandre,WLG,1-3-----,,50.666666666666664,5.65
BE,BE WAN,Wanze,Wanze,WLG,1-3-----,,50.53333333333333,5.216666666666667
BE,BE WCG,Warcoing,Warcoing,WHT,1-3----B,,50.7,3.3333333333333335
BE,BE WAR,Waregem,Waregem,VWV,1-3-----,,50.88333333333333,3.4166666666666665
BE,BE BWN,Warneton,Warneton,WHT,1-3-----,,50.75,2.95
BE,BE WLT,Waulsort,Waulsort,WNA,1-3-----,,50.21666666666667,4.866666666666667
BE,BE WEL,Wellen,Wellen,VLI,1-3-----,,50.85,5.316666666666666
BE,BE WER,Wervik,Wervik,VWV,1-3-----,,50.78333333333333,3.033333333333333
BE,BE WET,Wetteren,Wetteren,VOV,1-3-----,,51.0,3.8833333333333333
BE,BE WEV,Wevelgem,Wevelgem,VWV,1-3-----,,50.8,3.1666666666666665
BE,BE WIH,Wichelen,Wichelen,VOV,1-3-----,,51.0,3.9833333333333334
BE,BE WIR,Wiers,Wiers,WHT,1-3-----,,50.5,3.533333333333333
BE,BE WGL,Wijgmaal,Wijgmaal,VBR,1-3-----,,50.93333333333333,4.7
BE,BE WJG,Wijnegem,Wijnegem,VAN,1-3-----,,51.233333333333334,4.533333333333333
BE,BE WLB,Willebroek,Willebroek,VAN,1-3-----,,51.06666666666667,4.366666666666666
BE,BE WEE,Wingene,Wingene,VWV,1-3-----,,51.06666666666667,3.2666666666666666
BE,BE WTH,Wintham,Wintham,VAN,1-3-----,,51.1,4.3
BE,BE WDG,Wondelgem,Wondelgem,VOV,1-3-----,,51.083333333333336,3.716666666666667
BE,BE WLP,Wulpen,Wulpen,VWV,1-3-----,,51.1,2.7
BE,BE WIP,Wépion,Wepion,WNA,1-3-----,,50.416666666666664,4.866666666666667
BE,BE YVO,Yvoir,Yvoir,WNA,1-3-----,,50.333333333333336,4.883333333333333
BE,BE ZBR,Zandbergen,Zandbergen,VOV,1-3-----,,50.8,3.966666666666667
BE,BE ZVT,Zandvliet,Zandvliet,VAN,1-3-----,,51.36666666666667,4.3
BE,BE ZVD,Zandvoorde,Zandvoorde,VWV,1-3-----,,51.2,2.966666666666667
BE,BE ZEE,Zeebrugge,Zeebrugge,VWV,1-3-----,,51.333333333333336,3.2
BE,BE ZLE,Zele,Zele,VOV,1-3-----,,51.06666666666667,4.033333333333333
BE,BE ZEL,Zelzate,Zelzate,VOV,1-3-----,,51.2,3.8166666666666664
BE,BE ZET,Zemst,Zemst,VBR,1-3-----,,50.983333333333334,4.466666666666667
BE,BE ZGM,Zingem,Zingem,VOV,1-3-----,,50.9,3.65
BE,BE ZOD,Zolder,Zolder,VLI,1-3-----,,51.016666666666666,5.3
BE,BE ZRM,Zomergem,Zomergem,VOV,1-3-----,,51.11666666666667,3.55
BE,BE ZUN,Zuen (Zuun),Zuen (Zuun),VBR,1-3-----,,50.78333333333333,4.266666666666667
BE,BE ZUL,Zulte,Zulte,VOV,1-3-----,,50.916666666666664,3.4333333333333336
BE,BE ZTL,Zutendaal,Zutendaal,VLI,1-3-----,,50.93333333333333,5.566666666666666
BE,BE ZWE,Zwevegem,Zwevegem,VWV,1-3-----,,50.8,3.3333333333333335
BE,BE ZWN,Zwijnaarde,Zwijnaarde,VOV,1-3-----,,51.0,3.716666666666667
BE,BE ZWL,Zwijndrecht,Zwijndrecht,VAN,1-3-----,,51.21666666666667,4.333333333333333
BE,BE EET,Éthe,Ethe,WLX,1----6--,,49.583333333333336,5.583333333333333
BF,BF OB2,Ziniaré,Ziniare,OUB,1-3-----,,12.583333333333334,-1.3
BG,BG AKH,Akhtopol,Akhtopol,,1-------,,42.1,27.95
BG,BG BAL,Balchik,Balchik,,1-------,,43.416666666666664,28.166666666666668
BG,BG BOJ,Burgas,Burgas,,1-------,,,
BG,BG VT4,Byala Cherkva,Byala Cherkva,04,1-3-----,,43.2,25.3
BG,BG BSL,Byala Slatina,Byala Slatina,,123-----,,43.46666666666667,23.95
BG,BG GUR,Gurkovo,Gurkovo,24,123-----,,42.65,25.783333333333335
BG,BG 4IG,Ignatievo,Ignatievo,03,1-3-----,,43.25,27.766666666666666
BG,BG KUK,Kuklen,Kuklen,16,1-3-----,,42.03333333333333,24.783333333333335
BG,BG MAB,Marchevo,Marchevo,01,1----6--,,41.6,23.8
BG,BG NES,Nessebar,Nessebar,,1-3-----,,42.65,27.733333333333334
BG,BG NPO,Nikopol,Nikopol,15,123-----,,43.68333333333333,24.883333333333333
BG,BG OKH,Oryakhovo,Oryakhovo,,123-----,,43.733333333333334,23.95
BG,BG POD,Podayva,Podayva,17,1-------,,,
BG,BG XXX,RIS Inland waterways,RIS Inland waterways,,1-------,,,
BG,BG RDU,Ruse,Ruse,,1234----,,43.85,25.966666666666665
BG,BG SLS,Silistra,Silistra,,1--4----,,,
BG,BG SOM,Somovit,Somovit,,1-------,,,
BG,BG SOZ,Sozopol,Sozopol,,1-3-----,,42.416666666666664,27.7
BG,BG S3W,Straldzha,Straldzha,28,1-3-----,,42.6,26.683333333333334
BG,BG SVI,Svistov,Svistov,,1-------,,,
BG,BG VAR,Varna,Varna,,1--4----,,,
BG,BG VAZ,Varna-Zapad,Varna-Zapad,,1-------,,,
BG,BG VID,Vidin,Vidin,,1234----,,,
BH,BH AHD,Al Hidd,Al Hidd,15,1-3--67-,,26.233333333333334,50.65
BH,BH GBQ,Al Muharraq,Al Muharraq,15,1-------,,26.25,50.6
BH,BH KBS,Khalifa Bin Salman Port,Khalifa Bin Salman Port,15,1-------,,26.2,50.61666666666667
BH,BH MIN,Mina Sulman Port,Mina Sulman Port,13,1-------,,26.2,50.61666666666667
BH,BH SIT,Sitrah,Sitrah,16,1-------,,26.133333333333333,50.61666666666667
BI,BI CBK,Cibitoke,Cibitoke,BM,1-3-----,,-3.3333333333333335,29.366666666666667
BJ,BJ COO,Cotonou,Cotonou,,1--45---,,,
BJ,BJ PTN,Porto-Novo,Porto-Novo,OU,123-----,,6.483333333333333,2.6166666666666667
BJ,BJ SEM,Seme Terminal,Seme Terminal,,1-------,,,
BM,BM SEV,Devonshire,Devonshire,,1-------,,32.3,-64.75
BM,BM FPT,Freeport,Freeport,,1-------,,,
BM,BM BDA,Hamilton,Hamilton,,1--45---,,,
BM,BM HBI,Harbour Island,Harbour Island,,1-------,,25.5,-76.63333333333334
BM,BM KWF,Kings Wharf,Kings Wharf,,1-3-----,,,
BM,BM SGE,Saint George,Saint George,,1-------,,32.38333333333333,-64.68333333333334
BM,BM SAN,Sandys,Sandys,,1-------,,32.3,-64.86666666666666
BM,BM SOU,Southampton,Southampton,,1-------,,32.25,-64.85
BN,BN BWN,Bandar Seri Begawan,Bandar Seri Begawan,BM,1-345---,,4.883333333333333,114.93333333333334
BN,BN KUB,Kuala Belait,Kuala Belait,,1--4----,,,
BN,BN LUM,Lumut,Lumut,,1-------,,,
BN,BN MUA,Muara,Muara,,1-------,,,
BN,BN SER,Seria,Seria,,1-------,,,
BN,BN TAS,Tanjong Salirong,Tanjong Salirong,,1-------,,,
BO,BO CPB,Copacabana,Copacabana,L,1-3-----,,-16.15,-69.08333333333333
BO,BO GUQ,Guaqui,Guaqui,L,1-3-----,,-16.583333333333332,-68.86666666666666
BO,BO HTJ,Huatajata,Huatajata,L,1-3-----,,-16.166666666666668,-68.73333333333333
BO,BO PBU,Puerto Busch,Puerto Busch,S,1-3-----,,-20.033333333333335,-57.96666666666667
BO,BO PTC,Puerto Carabuco,Puerto Carabuco,L,1-3-----,,-15.75,-69.06666666666666
BO,BO PPR,Puerto Pérez,Puerto Perez,L,1-3-----,,-16.266666666666666,-68.63333333333334
BO,BO QJR,Puerto Quijarro,Puerto Quijarro,S,1-3-----,,-17.783333333333335,-57.766666666666666
BO,BO PUR,Puerto Rico,Puerto Rico,N,1-34----,,-11.083333333333334,-67.63333333333334
BO,BO PSZ,Puerto Suárez,Puerto Suarez,S,1--4----,,-18.95,-57.8
BO,BO RIB,Riberalta,Riberalta,B,1-34----,,-10.983333333333333,-66.1
BO,BO RBQ,Rurrenabaque,Rurrenabaque,B,1-34----,,-14.466666666666667,-67.56666666666666
BO,BO TDD,Trinidad,Trinidad,B,1-34----,,-14.833333333333334,-64.9
BQ,BQ BON,Bonaire,Bonaire,,1--45---,,12.116666666666667,-68.26666666666667
BQ,BQ RIN,Dorp Rincón,Dorp Rincon,,1-3-----,,12.233333333333333,-68.33333333333333
BQ,BQ GOT,Goto,Goto,,1-------,,12.216666666666667,-68.38333333333334
BQ,BQ KRA,Kralendijk,Kralendijk,,1-------,,12.15,-68.26666666666667
BQ,BQ SAB,Saba,Saba,,1--45---,,17.633333333333333,-63.233333333333334
BQ,BQ EUX,Sint Eustatius,Sint Eustatius,,1--45---,,17.483333333333334,-62.96666666666667
BR,BR AAR,Acará,Acara,PA,1-3-----,,-1.95,-48.2
BR,BR AFU,Afuá,Afua,PA,1-3-----,,-0.15,-50.38333333333333
BR,BR ACT,Alcântara,Alcantara,MA,1-3-----,,-2.4,-44.416666666666664
BR,BR ALT,Alenquer,Alenquer,PA,1-34----,,-1.95,-54.733333333333334
BR,BR AMM,Almeirim,Almeirim,PA,1-34----,,-1.5166666666666666,-52.56666666666667
BR,BR ATM,Altamira,Altamira,PA,1-34----,,-3.2,-52.2
BR,BR ANA,Ananindeua,Ananindeua,PA,1-3-----,,-1.3666666666666667,-48.36666666666667
BR,BR ADR,Angra dos Reis,Angra dos Reis,RJ,1-34-6--,,-23.0,-44.31666666666667
BR,BR ANH,Anhembi,Anhembi,SP,1-3-----,,-22.783333333333335,-48.11666666666667
BR,BR ANT,Antonina,Antonina,PR,1-3-----,,-25.416666666666668,-48.7
BR,BR AJU,Aracaju,Aracaju,SE,1-34----,,-10.9,-37.03333333333333
BR,BR RGC,Araguacema,Araguacema,TO,1-3-----,,-8.8,-49.55
BR,BR ANS,Araguatins,Araguatins,TO,1-34----,,-5.65,-48.11666666666667
BR,BR ARB,Aratu Pt / Candeias,Aratu Pt / Candeias,BA,12------,,-12.783333333333333,-38.5
BR,BR ARU,Araçatuba,Aracatuba,SP,1-34----,,-21.2,-50.43333333333333
BR,BR ARE,Areia Branca,Areia Branca,RN,1-3-----,,-4.95,-37.11666666666667
BR,BR ABZ,Armação dos Búzios,Armacao dos Buzios,RJ,1-3-----,BZC,-22.75,-41.88333333333333
BR,BR AUN,Aruanã,Aruana,GO,1-34----,,-14.9,-51.06666666666667
BR,BR AUS,Autazes,Autazes,AM,1-3-----,,-3.5666666666666664,-59.13333333333333
BR,BR ACX,Açu Pt / São João da Barra,Acu Pt / Sao Joao da Barra,RJ,1-------,,-21.816666666666666,-41.016666666666666
BR,BR BCE,Bacabeira,Bacabeira,MA,123-----,,-2.9833333333333334,-44.3
BR,BR BAC,Balneário Camboriú,Balneario Camboriu,SC,1-3-----,,-26.983333333333334,-48.63333333333333
BR,BR BSS,Balsas,Balsas,MA,1-34----,,-7.516666666666667,-46.03333333333333
BR,BR BAZ,Barcelos,Barcelos,AM,1-34----,,-0.9666666666666667,-62.916666666666664
BR,BR BIR,Bariri,Bariri,SP,1-34----,,-22.066666666666666,-48.733333333333334
BR,BR BQQ,Barra,Barra,BA,1-34----,,-11.083333333333334,-43.13333333333333
BR,BR RCH,Barra do Riacho Pt / Aracruz,Barra do Riacho Pt / Aracruz,ES,12------,,-19.85,-40.03333333333333
BR,BR BAR,Barra dos Coqueiros,Barra dos Coqueiros,SE,1-3-----,,-10.9,-37.03333333333333
BR,BR BEA,Barreirinha,Barreirinha,AM,1-3-----,,-2.783333333333333,-57.06666666666667
BR,BR BLE,Belmonte,Belmonte,BA,1-3-----,,-15.85,-38.86666666666667
BR,BR BEL,Belém,Belem,PA,1-34-6--,,-1.45,-48.483333333333334
BR,BR BVI,Benevides,Benevides,PA,1-3-----,,-1.35,-48.233333333333334
BR,BR BCT,Benjamin Constant,Benjamin Constant,AM,1-3-----,,-4.366666666666666,-70.01666666666667
BR,BR BEI,Beruri,Beruri,AM,1-3-----,,-3.8833333333333333,-61.36666666666667
BR,BR BVR,Boa Vista do Ramos,Boa Vista do Ramos,AM,1-3-----,,-2.966666666666667,-57.583333333333336
BR,BR BOB,Borba,Borba,AM,1-34----,RBB,-4.383333333333334,-59.583333333333336
BR,BR BVS,Breves,Breves,PA,1-34----,,-1.6833333333333333,-50.46666666666667
BR,BR CDO,Cabedelo Pt / João Pessoa,Cabedelo Pt / Joao Pessoa,PB,1-------,,-6.966666666666667,-34.833333333333336
BR,BR CFO,Cabo Frio,Cabo Frio,RJ,1-34----,,-22.866666666666667,-42.016666666666666
BR,BR CHI,Cachoeira do Arari,Cachoeira do Arari,PA,1-3-----,,-1.0,-48.95
BR,BR CPR,Cachoeira do Piriá,Cachoeira do Piria,PA,1-3-----,,-1.75,-46.53333333333333
BR,BR CSL,Cachoeira do Sul,Cachoeira do Sul,RS,1-34----,,-30.033333333333335,-52.88333333333333
BR,BR CMA,Cametá,Cameta,PA,1-3-----,,-2.2333333333333334,-49.483333333333334
BR,BR CGZ,Campos dos Goytacazes,Campos dos Goytacazes,RJ,1-34----,,-21.75,-41.31666666666667
BR,BR CAN,Canoas,Canoas,RS,123--6--,,-29.916666666666668,-51.166666666666664
BR,BR CTM,Canutama,Canutama,AM,1-3-----,,-6.516666666666667,-64.38333333333334
BR,BR CCY,Caracaraí,Caracarai,RR,1-3-----,,1.8,-61.13333333333333
BR,BR CRY,Carauari,Carauari,AM,1-34----,,-4.866666666666667,-66.88333333333334
BR,BR CRL,Caravelas,Caravelas,BA,1-34----,,-17.733333333333334,-39.25
BR,BR CVZ,Careiro da Várzea,Careiro da Varzea,AM,1-3-----,,-3.183333333333333,-59.81666666666667
BR,BR CLN,Carolina,Carolina,MA,1-34----,,-7.316666666666666,-47.46666666666667
BR,BR CQD,Charqueadas,Charqueadas,RS,1-3-----,,-29.95,-51.61666666666667
BR,BR CHE,Chaves,Chaves,PA,1-3-----,,-0.15,-49.983333333333334
BR,BR CAR,Coari,Coari,AM,1-34----,,-4.083333333333333,-63.13333333333333
BR,BR CDA,Codajás,Codajas,AM,1-3-----,,-3.8333333333333335,-62.05
BR,BR CGA,Conceição do Araguaia,Conceicao do Araguaia,PA,1-34----,,-8.25,-49.25
BR,BR CCS,Conchas,Conchas,SP,1-3-----,,-23.0,-48.0
BR,BR CMG,Corumbá,Corumba,MS,1234-6--,,-19.0,-57.63333333333333
BR,BR CZS,Cruzeiro do Sul,Cruzeiro do Sul,AC,1-34----,,-7.616666666666667,-72.66666666666667
BR,BR CUO,Cubatão,Cubatao,SP,123--6--,,-23.883333333333333,-46.416666666666664
BR,BR CCX,Cáceres,Caceres,MT,1-34-6--,,-16.066666666666666,-57.666666666666664
BR,BR DCS,Duque de Caxias,Duque de Caxias,RJ,1-3--6--,,-22.783333333333335,-43.3
BR,BR ERN,Eirunepé,Eirunepe,AM,1-34----,,-6.666666666666667,-69.85
BR,BR ETA,Estrela,Estrela,RS,1-34----,,-29.5,-51.96666666666667
BR,BR FEN,Fernando de Noronha,Fernando de Noronha,PE,1--4----,,-3.85,-32.43333333333333
BR,BR FBA,Fonte Boa,Fonte Boa,AM,1-3-----,,-2.5,-66.08333333333333
BR,BR FNO,Forno Pt / Arraial do Cabo,Forno Pt / Arraial do Cabo,RJ,1-------,,-22.966666666666665,-42.016666666666666
BR,BR FOR,Fortaleza,Fortaleza,CE,1234----,,-3.716666666666667,-38.583333333333336
BR,BR IGU,Foz do Iguaçu,Foz do Iguacu,PR,1-34-6--,,-25.533333333333335,-54.583333333333336
BR,BR GNS,Galinhos,Galinhos,RN,1-3-----,,-5.083333333333333,-36.266666666666666
BR,BR GJR,Guajará,Guajara,AM,1-3-----,,-7.533333333333333,-72.56666666666666
BR,BR GJM,Guajará-Mirim,Guajara-Mirim,RO,1-3--6--,,-10.766666666666667,-65.31666666666666
BR,BR GUA,Guamaré,Guamare,RN,1-3-----,,-5.1,-36.31666666666667
BR,BR GUJ,Guarujá,Guaruja,SP,123--6--,,-23.983333333333334,-46.233333333333334
BR,BR GIB,Guaíba,Guaiba,RS,1-3-----,,-30.1,-51.3
BR,BR GIA,Guaíra,Guaira,PR,1-34-6--,,-24.083333333333332,-54.233333333333334
BR,BR GRP,Gurupá,Gurupa,PA,1-3-----,,-1.4,-51.63333333333333
BR,BR HMA,Humaitá,Humaita,AM,1-34----,,-7.5,-63.016666666666666
BR,BR IBT,Ibotirama,Ibotirama,BA,1-34----,,-12.183333333333334,-43.21666666666667
BR,BR ISA,Ilha Solteira,Ilha Solteira,SP,1-3-----,,-20.416666666666668,-51.333333333333336
BR,BR IBE,Ilhabela,Ilhabela,SP,1-3-----,,-23.783333333333335,-45.35
BR,BR IOS,Ilhéus,Ilheus,BA,1-34----,,-14.783333333333333,-39.03333333333333
BR,BR IBB,Imbituba,Imbituba,SC,123-----,,-28.233333333333334,-48.666666666666664
BR,BR IMP,Imperatriz,Imperatriz,MA,1234----,,-5.516666666666667,-47.46666666666667
BR,BR IXA,Ipixuna,Ipixuna,AM,1-3-----,,-7.05,-71.68333333333334
BR,BR IRB,Iranduba,Iranduba,AM,1-3-----,,-3.2666666666666666,-60.18333333333333
BR,BR IAR,Itacoatiara,Itacoatiara,AM,1-34----,ITA,-3.1333333333333333,-58.43333333333333
BR,BR SPB,Itaguaí Pt = Sepetiba Pt,Itaguai Pt = Sepetiba Pt,RJ,12------,,-22.866666666666667,-43.766666666666666
BR,BR ITB,Itaituba,Itaituba,PA,1-34----,,-4.25,-55.983333333333334
BR,BR ITJ,Itajaí,Itajai,SC,1-3--6--,,-26.9,-48.65
BR,BR YTR,Itamarati,Itamarati,AM,1-3-----,,-6.433333333333334,-68.23333333333333
BR,BR IIM,Itapemirim,Itapemirim,ES,1-3-----,,-21.0,-40.833333333333336
BR,BR IPG,Itapiranga,Itapiranga,AM,1-3-----,,-2.7333333333333334,-58.03333333333333
BR,BR IOA,Itapoá,Itapoa,SC,1-3-----,,-26.0,-48.6
BR,BR ITQ,Itaqui,Itaqui,RS,1-3-----,,-29.116666666666667,-56.55
BR,BR IQI,Itaqui Pt / São Luís,Itaqui Pt / Sao Luis,MA,12------,,-2.5666666666666664,-44.36666666666667
BR,BR JAG,Jaguarão,Jaguarao,RS,1-3--6--,,-32.55,-53.36666666666667
BR,BR JAU,Jaú,Jau,SP,123-----,,-22.283333333333335,-48.55
BR,BR JZO,Juazeiro,Juazeiro,BA,1-3-----,,-9.4,-40.5
BR,BR JUR,Juruti,Juruti,PA,1-3-----,,-2.15,-56.083333333333336
BR,BR LDR,Ladário,Ladario,MS,123-----,,-19.0,-57.6
BR,BR LJI,Laranjal do Jari,Laranjal do Jari,AP,1-3-----,,-0.85,-52.53333333333333
BR,BR LRS,Linhares,Linhares,ES,1-34----,,-19.383333333333333,-40.05
BR,BR MCU,Macau,Macau,RN,1-3-----,,-5.1,-36.63333333333333
BR,BR MEA,Macaé,Macae,RJ,1-34----,,-22.366666666666667,-41.766666666666666
BR,BR MCZ,Maceió,Maceio,AL,1-34----,,-9.65,-35.7
BR,BR MDD,Madre de Deus,Madre de Deus,BA,1-3-----,,-12.733333333333333,-38.6
BR,BR MPR,Manacapuru,Manacapuru,AM,1-3-----,,-3.283333333333333,-60.61666666666667
BR,BR MQR,Manaquiri,Manaquiri,AM,1-3-----,,-3.4166666666666665,-60.45
BR,BR MAO,Manaus,Manaus,AM,1-3456--,,-3.1333333333333333,-60.016666666666666
BR,BR MGT,Mangaratiba,Mangaratiba,RJ,123-----,,-22.95,-44.03333333333333
BR,BR MNX,Manicoré,Manicore,AM,1-34----,,-5.8,-61.28333333333333
BR,BR MAB,Marabá,Maraba,PA,1234----,,-5.35,-49.13333333333333
BR,BR MAR,Maragogipe,Maragogipe,BA,1-3-----,,-12.766666666666667,-38.916666666666664
BR,BR MRC,Maricá,Marica,RJ,1-34----,,-22.916666666666668,-42.81666666666667
BR,BR MAS,Maués,Maues,AM,1-34----,,-3.3833333333333333,-57.7
BR,BR MOU,Moju,Moju,PA,1-3-----,,-1.8833333333333333,-48.766666666666666
BR,BR MTE,Monte Alegre,Monte Alegre,PA,1-34----,,-2.0,-54.06666666666667
BR,BR MOS,Mossoró,Mossoro,RN,1-34----,,-5.183333333333334,-37.35
BR,BR MNV,Mundo Novo,Mundo Novo,MS,1-3--6--,,-23.933333333333334,-54.266666666666666
BR,BR NAT,Natal,Natal,RN,1-34----,,-5.75,-35.25
BR,BR NVT,Navegantes,Navegantes,SC,1-34----,,-26.883333333333333,-48.63333333333333
BR,BR NAA,Nhamundá,Nhamunda,AM,1-3-----,,-2.183333333333333,-56.71666666666667
BR,BR NTR,Niterói,Niteroi,RJ,1-3-----,QNT,-22.883333333333333,-43.06666666666667
BR,BR NON,Nova Olinda do Norte,Nova Olinda do Norte,AM,1-3-----,,-3.8833333333333333,-59.083333333333336
BR,BR NAO,Novo Airão,Novo Airao,AM,1-3-----,,-2.6166666666666667,-60.93333333333333
BR,BR NVP,Novo Aripuanã,Novo Aripuana,AM,1-3-----,,-5.116666666666666,-60.36666666666667
BR,BR ORX,Oriximiná,Oriximina,PA,1-34----,,-1.75,-55.85
BR,BR PNX,Panorama,Panorama,SP,1-3-----,,-21.35,-51.85
